frame_number,t_read_host_s,vicon_latency_s,t_capture_host_s,subject_name,segment_name,x_m,y_m,z_m,qx,qy,qz,qw,roll_rad,pitch_rad,yaw_rad,is_occluded,t_elapsed_s,phase_name,phase_type
28064,0.0428021,0.0134649999999965,0.0293371000000035,Nausicaa,Nausicaa,-0.0611438244287001,-0.127653394793432,1.22837958305191,0.00131320086070131,-0.00805707992517458,0.00672283251434926,0.99994407968124,0.00273494535095904,-0.0160962969405099,0.0134682260977826,0,-0.0124644999999965,unlabeled,unlabeled
28074,0.0915384,0.0121945000000778,0.0793438999999222,Nausicaa,Nausicaa,-0.0611336934473423,-0.127654745309559,1.22838091356457,0.00127580912256598,-0.00805412166077255,0.00675246735948015,0.999943952239282,0.00266059318342405,-0.016090805118486,0.0135268924153612,0,0.0375422999999222,static_reference,static_reference
28077,0.1065532,0.0125320000001921,0.0940211999998079,Nausicaa,Nausicaa,-0.0611353546671951,-0.127672969697806,1.2283550423027,0.0012957750265021,-0.00796999087789328,0.00669022419870807,0.999945019044876,0.00269839493985887,-0.0159224400880044,0.0134024674306441,0,0.0522195999998079,static_reference,static_reference
28080,0.122086,0.0123852000001534,0.109700799999847,Nausicaa,Nausicaa,-0.0611537791671758,-0.127703318922659,1.22835504081095,0.0013284746408209,-0.00797927002024404,0.00666764427137088,0.999945052952883,0.00276356378355585,-0.0159406226591399,0.0133578506168324,0,0.0678991999998466,static_reference,static_reference
28083,0.1374398,0.012903599999845,0.124536200000155,Nausicaa,Nausicaa,-0.0611501097985827,-0.127686577634502,1.22838589566569,0.00137519724199572,-0.00795684897158022,0.00670026725359704,0.99994495038763,0.00285723392899642,-0.015895062836318,0.0134237801316387,0,0.082734600000155,static_reference,static_reference
28086,0.1535014,0.012796100000287,0.140705299999713,Nausicaa,Nausicaa,-0.0611370907278544,-0.127660840798002,1.22838729918694,0.00134598578199234,-0.00806209915782149,0.00672571383323643,0.999943976257109,0.0028006343878116,-0.0161058858482322,0.0134745323044643,0,0.098903699999713,static_reference,static_reference
28090,0.1684408,0.0126837000002524,0.155757099999748,Nausicaa,Nausicaa,-0.0611421800748209,-0.127699670248735,1.22835387614145,0.0012549864881016,-0.0079799342641939,0.00671494171590434,0.999944826085823,0.00261733968778643,-0.0159428090014988,0.0134512868980576,0,0.113955499999748,static_reference,static_reference
28092,0.1835878,0.0127999000001182,0.170787899999882,Nausicaa,Nausicaa,-0.0611595156004918,-0.127691260134873,1.22835617364877,0.00137648365681023,-0.00795017457667364,0.00670237282683674,0.999944987594534,0.00285975047892943,-0.0158816906499275,0.0134279917010793,0,0.128986299999882,static_reference,static_reference
28096,0.1991816,0.0131235999997443,0.186058000000256,Nausicaa,Nausicaa,-0.0611380785927991,-0.127698033885328,1.22841130108881,0.00125263688335166,-0.00806598232823636,0.00674508923778467,0.999943935728945,0.00261428727212415,-0.0161148593999197,0.0135117951258558,0,0.144256400000256,static_reference,static_reference
28099,0.2150747,0.0132896000004621,0.201785099999538,Nausicaa,Nausicaa,-0.0611437464952865,-0.127685702477581,1.22835688714276,0.0012267403839957,-0.00800347003805069,0.0066854309238564,0.999944870774756,0.00256068896518786,-0.0159903364714692,0.0133918733690101,0,0.159983499999538,static_reference,static_reference
28102,0.2306596,0.0136769000000641,0.216982699999936,Nausicaa,Nausicaa,-0.0611475485883336,-0.127703141151591,1.22836772857377,0.00130643019745259,-0.00797985697679576,0.00672432436502674,0.999944697763133,0.00272038322526345,-0.0159419368778386,0.0134708743444219,0,0.175181099999936,static_reference,static_reference
28105,0.2460223,0.0137448000000404,0.23227749999996,Nausicaa,Nausicaa,-0.0611438817034813,-0.12764192198514,1.22837965474639,0.00134695834365006,-0.00805144023585469,0.00673209163230973,0.999944017910804,0.00280253812900707,-0.0160845368405132,0.0134872728921958,0,0.19047589999996,static_reference,static_reference
28108,0.2610774,0.0133842000000186,0.247693199999981,Nausicaa,Nausicaa,-0.0611331198656283,-0.127649973192805,1.22840274982181,0.00143823603308659,-0.00805608217522189,0.00672509898111183,0.999943900456817,0.00298505754496561,-0.0160926104865837,0.0134747689757568,0,0.205891599999981,static_reference,static_reference
28111,0.2761378,0.0133046000000832,0.262833199999917,Nausicaa,Nausicaa,-0.0611421113124566,-0.127711570736951,1.22834539713911,0.00123532710228974,-0.00795885733263516,0.00668197147032973,0.999945239407728,0.00257720928439733,-0.0159010042258557,0.0133849664273441,0,0.221031599999917,static_reference,static_reference
28114,0.2916592,0.0133380000002035,0.278321199999797,Nausicaa,Nausicaa,-0.0611413293573828,-0.127692578668704,1.22835322805973,0.00127688833004212,-0.00796575645239231,0.00669646158897276,0.999945035330703,0.00266066111068136,-0.0159142077026589,0.0134146307533124,0,0.236519599999797,static_reference,static_reference
28117,0.3066841,0.0134957000004761,0.293188399999524,Nausicaa,Nausicaa,-0.0611392255321137,-0.127645949904833,1.228385700226,0.00128806558639806,-0.00804728398502543,0.00675089416159009,0.999944002199887,0.00268498985144978,-0.0160769680778559,0.0135239230202986,0,0.251386799999524,static_reference,static_reference
28120,0.3223184,0.0135967999999593,0.308721600000041,Nausicaa,Nausicaa,-0.0611328024651515,-0.127668896335997,1.22839430833322,0.00133127793168806,-0.00803630567435585,0.0067258405250978,0.999944202723036,0.00277086974976994,-0.0160544962717258,0.0134744717442321,0,0.266920000000041,static_reference,static_reference
28123,0.3378498,0.0135356999999203,0.32431410000008,Nausicaa,Nausicaa,-0.061141477854895,-0.127731683221634,1.2283513125462,0.00129079235627669,-0.00798082185408177,0.00669822609929108,0.999944885533572,0.00268870211553363,-0.0159441474864734,0.0134184251989545,0,0.28251250000008,static_reference,static_reference
28126,0.3538957,0.0133215999999265,0.340574100000073,Nausicaa,Nausicaa,-0.0611492602667258,-0.127684546942923,1.22835703452704,0.00129834005540889,-0.00798044526026361,0.00668124896792226,0.999944992346468,0.00270352284682631,-0.0159433389141977,0.0133845862187009,0,0.298772500000073,static_reference,static_reference
28130,0.3697451,0.0135488049997569,0.356196295000243,Nausicaa,Nausicaa,-0.0611407522572376,-0.127661080810248,1.22839122772435,0.00128829791120129,-0.00805431526328979,0.0067235603775763,0.999944129454231,0.00268511005422819,-0.0160911010161482,0.0134692731029553,0,0.314394695000243,static_reference,static_reference
28133,0.3857367,0.0135814625000889,0.372155237499911,Nausicaa,Nausicaa,-0.0611325467393236,-0.12766771847561,1.228393775207,0.00134037273915508,-0.00804977347631506,0.0067166320680644,0.999944144140843,0.00278909472713241,-0.016081335239185,0.013456239152075,0,0.330353637499911,static_reference,static_reference
28136,0.4013538,0.013790742500114,0.387563057499886,Nausicaa,Nausicaa,-0.0611429079721937,-0.127721213542325,1.22839283960841,0.00113303895308302,-0.00799468915455257,0.00671501691498423,0.999944853337365,0.00237362694356316,-0.015973959126973,0.0134495311264369,0,0.345761457499886,static_reference,static_reference
28139,0.4163939,0.0134549100001054,0.402938989999895,Nausicaa,Nausicaa,-0.061136229409711,-0.127673757694924,1.22839330764389,0.00134400149261127,-0.00805165030045977,0.00672405093221197,0.999944074299402,0.00279649747275632,-0.0160850193416713,0.0134711426543336,0,0.361137389999895,static_reference,static_reference
28142,0.4314805,0.0135580625003077,0.417922437499692,Nausicaa,Nausicaa,-0.0611478726039438,-0.127684810614644,1.22836093122563,0.00135857255827202,-0.00797556117700548,0.00669650967214587,0.999944849210558,0.00282417431575774,-0.0159327213310688,0.0134160566794979,0,0.376120837499692,static_reference,static_reference
28145,0.4467573,0.0134359424999224,0.433321357500078,Nausicaa,Nausicaa,-0.0611376948961413,-0.127700099633877,1.22836113405178,0.00126216401679476,-0.00806186999636585,0.00673216407612163,0.999944044014968,0.00263307901777795,-0.0161065399682313,0.0134860835321865,0,0.391519757500078,static_reference,static_reference
28148,0.4616866,0.0133198025000668,0.448366797499933,Nausicaa,Nausicaa,-0.0611438539925126,-0.127671704613645,1.22839429349259,0.00131994408621747,-0.00806479835235421,0.00674066609580686,0.999943888523616,0.00274882449828578,-0.0161115940860433,0.0135040289460722,0,0.406565197499933,static_reference,static_reference
28151,0.4766619,0.0134067899999083,0.463255110000092,Nausicaa,Nausicaa,-0.0611370885359087,-0.127657083698411,1.22837971383447,0.00126219786516221,-0.00803102501843579,0.00673943054099369,0.999944243230434,0.0026328459782552,-0.0160448298912907,0.0135005308117175,0,0.421453510000092,static_reference,static_reference
28154,0.4922357,0.0134004625000871,0.478835237499913,Nausicaa,Nausicaa,-0.0611292626587735,-0.127690174943005,1.22835328951626,0.00120647921483981,-0.00803773286053811,0.00676386670726054,0.999944093119977,0.00252188368549551,-0.0160589362921882,0.013548533254422,0,0.437033637499913,static_reference,static_reference
28157,0.5081738,0.0135154274998574,0.494658372500143,Nausicaa,Nausicaa,-0.0611398848417722,-0.127693724555323,1.22836494144508,0.00135594432739465,-0.00799961806369516,0.00671944686302674,0.999944506740085,0.00281960795261116,-0.0159808060900136,0.0134619675459812,0,0.452856772500143,static_reference,static_reference
28160,0.5231233,0.0141089500001383,0.509014349999862,Nausicaa,Nausicaa,-0.0611478351945645,-0.127647608113432,1.22838719622839,0.0012358623544674,-0.0080420729068892,0.00675756800331819,0.999944064926775,0.00258061211898399,-0.016067234598085,0.0135364183761788,0,0.467212749999862,static_reference,static_reference
28163,0.5387,0.0142230050001834,0.524476994999817,Nausicaa,Nausicaa,-0.0611339881707248,-0.127661895928425,1.22838481229686,0.00127669683895441,-0.00805210715236847,0.00673126524639961,0.999944110280055,0.00266200028754569,-0.0160868205057102,0.0134844916293786,0,0.482675394999817,static_reference,static_reference
28167,0.5547544,0.01349760000035,0.54125679999965,Nausicaa,Nausicaa,-0.0611407590309992,-0.12774953287614,1.22837830605009,0.00108155506242154,-0.00799317615621446,0.00670910370775629,0.999944962135927,0.00227053671124208,-0.0159716389618083,0.0134368771002691,0,0.49945519999965,static_reference,static_reference
28170,0.5698194,0.0136447325001233,0.556174667499877,Nausicaa,Nausicaa,-0.061145068229902,-0.127673722088077,1.22838350368398,0.0012918704651026,-0.00807166898783739,0.00675637822047465,0.999943763710637,0.00269301951718767,-0.0161256722736109,0.0135350246076317,0,0.514373067499877,static_reference,static_reference
28173,0.5845917,0.0137069575002366,0.570884742499763,Nausicaa,Nausicaa,-0.0611270540020289,-0.127685875513626,1.2284365527488,0.000979016381562842,-0.00805349124563433,0.00677197944354722,0.999944159990995,0.00206726876003572,-0.0160935180176774,0.0135611433329581,0,0.529083142499763,static_reference,static_reference
28176,0.6000868,0.0138547099998316,0.586232090000168,Nausicaa,Nausicaa,-0.0611379047911208,-0.127693868906824,1.22836943278797,0.00131303396069389,-0.00796604691088929,0.00668949788723586,0.999945032817529,0.00273285074439666,-0.0159143227537509,0.0134012778326731,0,0.544430490000168,static_reference,static_reference
28179,0.6151136,0.0139372799998944,0.601176320000106,Nausicaa,Nausicaa,-0.0611435438950971,-0.12770722508911,1.22836173161588,0.00127950386072113,-0.0079671873488222,0.00668042613443225,0.999945127845664,0.00266565654221712,-0.0159170771810626,0.0133826018549258,0,0.559374720000106,static_reference,static_reference
28182,0.6307401,0.0137434675003367,0.616996632499663,Nausicaa,Nausicaa,-0.0611344463945596,-0.127672943849047,1.22838885139174,0.0013026945882767,-0.00807283052724257,0.00674256068811403,0.999943833557393,0.00271446229368728,-0.0161278863737187,0.0135075642047533,0,0.575195032499663,static_reference,static_reference
28185,0.6462834,0.0137292824997006,0.632554117500299,Nausicaa,Nausicaa,-0.0611248832254659,-0.127644785378431,1.22835759596307,0.00131290667921448,-0.00804069612223457,0.00675317440050566,0.999944007491138,0.00273462299271851,-0.016063450043028,0.0135288639740838,0,0.590752517500299,static_reference,static_reference
28188,0.6622133,0.0134829625002635,0.648730337499736,Nausicaa,Nausicaa,-0.0611291923422328,-0.127686753974211,1.22834807438456,0.00130018242306201,-0.00795585149287551,0.00670679344763583,0.999945014925491,0.00270728362811792,-0.0158940571567884,0.0134356386623916,0,0.606928737499736,static_reference,static_reference
28191,0.6772477,0.0136377725000814,0.663609927499919,Nausicaa,Nausicaa,-0.061137950192956,-0.127720743504013,1.22839597019929,0.00121945838484404,-0.00796085692300519,0.00666997168734586,0.999945323083212,0.00254530549069655,-0.0159052463913923,0.0133607172427386,0,0.621808327499919,static_reference,static_reference
28194,0.6926527,0.0137237800005252,0.678928919999475,Nausicaa,Nausicaa,-0.0611544390421174,-0.127676849707058,1.22840546068502,0.00136735128738849,-0.00806185260140427,0.00669762392327509,0.999944137798144,0.00284291283604145,-0.0161051846977294,0.0134186891812015,0,0.637127319999475,static_reference,static_reference
28197,0.7086571,0.0135693125002,0.6950877874998,Nausicaa,Nausicaa,-0.0611311188112127,-0.127668505655877,1.2284129750581,0.00142970021319878,-0.00804747619308223,0.0067373133673764,0.999943899772788,0.0029680646052943,-0.0160754771434041,0.0134990358593093,0,0.6532861874998,static_reference,static_reference
28201,0.7241436,0.0138969025002076,0.710246697499792,Nausicaa,Nausicaa,-0.0611665698334588,-0.127700518140169,1.22835889681268,0.00127700675874932,-0.00800057518923214,0.00667845139311905,0.999944877649448,0.00266107870492359,-0.0159838921005463,0.0133787081457211,0,0.668445097499792,static_reference,static_reference
28204,0.7397875,0.0136331275002921,0.726154372499708,Nausicaa,Nausicaa,-0.0611320147390645,-0.127667362350944,1.22840394612959,0.00137175829219107,-0.00808318738843448,0.00673343171643637,0.999943719045303,0.00285259312143076,-0.0161476933735919,0.0134904497650668,0,0.684352772499708,static_reference,static_reference
28207,0.7548347,0.0137876549999619,0.741047045000038,Nausicaa,Nausicaa,-0.061119826650365,-0.127707290952275,1.22840943330689,0.00123130389051186,-0.00798023458288125,0.00669002437779381,0.999945020148886,0.00256957773456619,-0.0159437922441892,0.013401069639164,0,0.699245445000038,static_reference,static_reference
28210,0.7706171,0.0136049550001309,0.757012144999869,Nausicaa,Nausicaa,-0.0611121358757138,-0.12767697086021,1.22838735342768,0.00134929524691469,-0.00795930006226567,0.00676128011261594,0.999944555481,0.00280642941523382,-0.0159001415550909,0.0135454157263472,0,0.715210544999869,static_reference,static_reference
28213,0.7866285,0.0136227674999642,0.773005732500036,Nausicaa,Nausicaa,-0.0611565182891638,-0.127691789140232,1.22836576363344,0.00129756792136678,-0.00792788089747895,0.00670124485499895,0.999945277672413,0.00270158929525838,-0.015838165642433,0.0134244170872067,0,0.731204132500036,static_reference,static_reference
28216,0.8021472,0.0136018250000465,0.788545374999953,Nausicaa,Nausicaa,-0.0611494584467958,-0.127667793542611,1.22838216812155,0.00140088215105305,-0.0079835675170448,0.00670261058403023,0.999944686065314,0.00290900485138887,-0.0159481487365527,0.0134289590626183,0,0.746743774999953,static_reference,static_reference
28219,0.8178705,0.0137083525003236,0.804162147499676,Nausicaa,Nausicaa,-0.0611386778659495,-0.127716585214193,1.22833923629625,0.00131061406843602,-0.00790359922718399,0.00664945087242962,0.999945798637664,0.00272653850027426,-0.0157895680308516,0.0133209524644542,0,0.762360547499676,static_reference,static_reference
28222,0.8327781,0.0135629524997367,0.819215147500263,Nausicaa,Nausicaa,-0.0611437266177737,-0.127688768000979,1.22836433655114,0.00130833967148241,-0.00797693958333861,0.00672420097818181,0.999944719373723,0.00272416105477924,-0.0159360766570076,0.0134706494086454,0,0.777413547500263,static_reference,static_reference
28225,0.8480456,0.0133696125003271,0.834675987499673,Nausicaa,Nausicaa,-0.0611413263707288,-0.127648807086314,1.22842329329576,0.00142718488172058,-0.00808122401613758,0.00673136386879392,0.999943671264627,0.00296339475371212,-0.0161430249493844,0.0134872023668583,0,0.792874387499673,static_reference,static_reference
28228,0.8638795,0.0132859150002759,0.850593584999724,Nausicaa,Nausicaa,-0.0611322236404429,-0.127661468959098,1.22836838764003,0.0012999212008707,-0.0080403794762302,0.00674563419535396,0.999944077897385,0.00270852466157747,-0.0160630128520073,0.0135135722448499,0,0.808791984999724,static_reference,static_reference
28232,0.8796346,0.0135576250002349,0.866076974999765,Nausicaa,Nausicaa,-0.0611403172108307,-0.127693014277742,1.22833917262891,0.00137425682452421,-0.0079969398976383,0.00668037902597521,0.999944764927805,0.00285557527311107,-0.0159753147623955,0.0133841071528051,0,0.824275374999765,static_reference,static_reference
28235,0.895204,0.0136076700001562,0.881596329999844,Nausicaa,Nausicaa,-0.0611355897977505,-0.127671733219456,1.22839097993646,0.00137060894859699,-0.0080629007651552,0.0067534956545033,0.999943749097321,0.00285034282642792,-0.0161070780918195,0.0135305016122996,0,0.839794729999844,static_reference,static_reference
28238,0.9112782,0.0135501875001596,0.89772801249984,Nausicaa,Nausicaa,-0.0611253308975924,-0.127647684757431,1.22838289175768,0.00124892597914462,-0.00805537556006345,0.00674923482010504,0.999943997900796,0.00260678784819624,-0.0160936850145358,0.013519997510723,0,0.85592641249984,static_reference,static_reference
28241,0.9269694,0.0135860499999101,0.91338335000009,Nausicaa,Nausicaa,-0.0611414600145131,-0.127694740974359,1.22837860338772,0.00144789255833977,-0.0080047584586781,0.00670171326610768,0.999944455701644,0.00300330390819169,-0.015989902324709,0.013427982164663,0,0.87158175000009,static_reference,static_reference
28244,0.9423189,0.0133656900000734,0.928953209999927,Nausicaa,Nausicaa,-0.0611374284697275,-0.127688674733733,1.22835231124473,0.00123174425713412,-0.00794088806129426,0.00671283573782869,0.999945179967002,0.00257029151329531,-0.0158650340173211,0.0134465951408135,0,0.887151609999927,static_reference,static_reference
28247,0.9584367,0.0131450075000261,0.945291692499974,Nausicaa,Nausicaa,-0.0611426431922897,-0.127652025560023,1.22839075950366,0.00132839370773322,-0.00805085778204846,0.0067357405975587,0.999944022862147,0.00276545687984311,-0.0160836122213793,0.0134942713306466,0,0.903490092499974,static_reference,static_reference
28251,0.9742766,0.0134284175002928,0.960848182499707,Nausicaa,Nausicaa,-0.0611613940501284,-0.127691439508499,1.22837692750434,0.00140543322991322,-0.00800363798339422,0.00669007861036528,0.999944603157922,0.00291817779359413,-0.0159882654537101,0.0134040276473014,0,0.919046582499707,static_reference,static_reference
28254,0.9896839,0.0134480200001468,0.976235879999853,Nausicaa,Nausicaa,-0.0611405585093976,-0.127692784241204,1.22837514217008,0.00131561446009013,-0.00798520614050817,0.00670446972857971,0.999944776338746,0.00273850862863392,-0.0159525659462147,0.0134313226473253,0,0.934434279999853,static_reference,static_reference
28257,1.004664,0.0136104124999546,0.991053587500045,Nausicaa,Nausicaa,-0.061126141047857,-0.127664726181667,1.22840191196542,0.001420977851995,-0.00798356310482832,0.00672958433271894,0.999944476576977,0.00294962939248394,-0.015947790476608,0.0134832333525535,0,0.949251987500045,static_reference,static_reference
28260,1.0200627,0.0131888525000949,1.00687384749991,Nausicaa,Nausicaa,-0.0611469033923254,-0.127655095862091,1.22842701656041,0.00141723173611885,-0.00809595929409675,0.00671977544655658,0.999943644169641,0.00294349897574517,-0.0161726641189466,0.0134639086609052,0,0.965072247499905,static_reference,static_reference
28263,1.0350324,0.0135689924998439,1.02146340750016,Nausicaa,Nausicaa,-0.0611526652040911,-0.127715286250355,1.22836574875635,0.00130368334597583,-0.00796214410024337,0.00669836830420976,0.999945016754982,0.00271423678160525,-0.015906618303989,0.0134188604877727,0,0.979661807500156,static_reference,static_reference
28266,1.0507326,0.0138069174998412,1.03692568250016,Nausicaa,Nausicaa,-0.0611525035201859,-0.1276758977398,1.22835824311344,0.00129108117979214,-0.00795613566344142,0.00672294015101463,0.999944916028087,0.00268934032551595,-0.0158947043616457,0.0134677919896168,0,0.995124082500159,static_reference,static_reference
28269,1.066072,0.0133153200001739,1.05275667999983,Nausicaa,Nausicaa,-0.0611390557794734,-0.12766573552371,1.22838867504157,0.00132411705950217,-0.00804989501965001,0.00673771936879795,0.999944022954232,0.00275692173086868,-0.0160817389361274,0.0134981576917565,0,1.01095507999983,static_reference,static_reference
28272,1.0811409,0.0139605025000072,1.06718039749999,Nausicaa,Nausicaa,-0.0611482761824482,-0.127711638547072,1.22836052488194,0.00132504047558233,-0.00795927798631098,0.00668155334760119,0.999945123997581,0.00275664817224212,-0.0159006457883193,0.0133855578835489,0,1.02537879749999,static_reference,static_reference
28275,1.0966311,0.0138844550000722,1.08274664499993,Nausicaa,Nausicaa,-0.0611340137002469,-0.127685844114535,1.22838086297852,0.00139717413825257,-0.00796978221754507,0.00672431360995659,0.999944655509647,0.00290174806358377,-0.0159205647346989,0.0134722680789533,0,1.04094504499993,static_reference,static_reference
28278,1.112667,0.0139121675003077,1.09875483249969,Nausicaa,Nausicaa,-0.0611323972116534,-0.127659843753616,1.22838821704395,0.00135656097152146,-0.00808112845228169,0.00676207676343478,0.999943563118996,0.00282263080004362,-0.0161436996351199,0.0135474950299015,0,1.05695323249969,static_reference,static_reference
28281,1.1282088,0.0136017349999005,1.1146070650001,Nausicaa,Nausicaa,-0.0611391387125603,-0.127648626360145,1.22837668756154,0.00124039935721576,-0.00805729195932183,0.0067501881312335,0.999943986639207,0.00258977466591324,-0.0160976306593946,0.0135217725088478,0,1.0728054650001,static_reference,static_reference
28284,1.1440449,0.0138425649998761,1.13020233500012,Nausicaa,Nausicaa,-0.0611472027042188,-0.127698938142099,1.22836086383611,0.00130127273450216,-0.00797717110347491,0.00668398232877358,0.999944996392644,0.00270938823307715,-0.0159367438859367,0.0133900907660578,0,1.08840073500012,static_reference,static_reference
28288,1.1597205,0.0137635425002155,1.14595695749978,Nausicaa,Nausicaa,-0.0610487646682953,-0.127725199943371,1.22832321509231,0.001255680682195,-0.00778938394321637,0.0065491980443222,0.999947427002433,0.00261357721739108,-0.0155621295924705,0.0131192342856494,0,1.10415535749978,static_reference,static_reference
28291,1.175653,0.0135028125001631,1.16215018749984,Nausicaa,Nausicaa,-0.0611274001879746,-0.127662176823221,1.22840188901907,0.0012970166643818,-0.00804884001461176,0.00672999333362766,0.999944118994617,0.00270257833146154,-0.0160800155986792,0.0134822648570832,0,1.12034858749984,static_reference,static_reference
28294,1.191425,0.0139096724998302,1.17751532750017,Nausicaa,Nausicaa,-0.0611264384207841,-0.127703937314426,1.2284029229941,0.00110888440307683,-0.00804362665467548,0.00674184419076696,0.999944307440434,0.00232640560955388,-0.0160720974451452,0.0135029305666637,0,1.13571372750017,static_reference,static_reference
28297,1.207588,0.0132624775000702,1.19432552249993,Nausicaa,Nausicaa,-0.0611519474688298,-0.127690712394694,1.22837343458358,0.00133935253101481,-0.00799091310497846,0.00671206893493793,0.999944648254672,0.00278618651986348,-0.0159636399494593,0.0134469186641605,0,1.15252392249993,static_reference,static_reference
28300,1.2228655,0.0130227600002426,1.20984273999976,Nausicaa,Nausicaa,-0.0611546896454762,-0.127689659738184,1.22837652525536,0.00130198763923401,-0.00801228651671146,0.00669037580988763,0.999944671951645,0.00271139229545803,-0.0160069483995497,0.0134029933529207,0,1.16804113999976,static_reference,static_reference
28304,1.2383057,0.012869055000161,1.22543664499984,Nausicaa,Nausicaa,-0.0611487113138692,-0.127676314414422,1.22839652282189,0.00124934073098215,-0.00803823946630922,0.00674932215490498,0.999944134691768,0.00260738638294665,-0.0160594066991091,0.0135201304606401,0,1.18363504499984,static_reference,static_reference
28307,1.2542531,0.0131880350000837,1.24106506499992,Nausicaa,Nausicaa,-0.0611375052032108,-0.127689292617358,1.22834279643276,0.0011856201099449,-0.00798830089366736,0.00670663082435567,0.999944899710366,0.00247857695781588,-0.0159604960532032,0.0134335797205471,0,1.19926346499992,static_reference,static_reference
28310,1.270401,0.0133096950001511,1.25709130499985,Nausicaa,Nausicaa,-0.0611503791981779,-0.127700268770442,1.22834961864048,0.00132241557958172,-0.00797086634866472,0.00669467605398891,0.999944947394215,0.00275176263507507,-0.0159238217292429,0.0134117989741766,0,1.21528970499985,static_reference,static_reference
28313,1.2861601,0.0133353799999531,1.27282472000005,Nausicaa,Nausicaa,-0.0611369482974263,-0.127659786585869,1.2283917772438,0.0013108649007813,-0.00806133335038255,0.00672958832155081,0.999944003021593,0.00273043937714755,-0.0161048168801749,0.0134817142550336,0,1.23102312000005,static_reference,static_reference
28316,1.3018757,0.0136530474998005,1.2882226525002,Nausicaa,Nausicaa,-0.0611303423452529,-0.127672011944043,1.2283851615409,0.00124123258280533,-0.00804338761214895,0.00672642121525932,0.999944257703914,0.00259087063870327,-0.0160698720446257,0.0134742073855681,0,1.2464210525002,static_reference,static_reference
28319,1.3175184,0.0136239725001779,1.30389442749982,Nausicaa,Nausicaa,-0.0611306868810004,-0.127692548909981,1.22836434485342,0.0013790477846994,-0.00801494526665024,0.00669372835229019,0.99994452490142,0.00286561352342032,-0.0160112234265362,0.0134109409372287,0,1.26209282749982,static_reference,static_reference
28322,1.3335462,0.0137998625001459,1.31974633749985,Nausicaa,Nausicaa,-0.0611525120303787,-0.127687064563341,1.22835544941046,0.00126269255206329,-0.00794682886813831,0.00668945375039141,0.999945250864756,0.00263190146633945,-0.0158765611050695,0.013400333656927,0,1.27794473749985,static_reference,static_reference
28325,1.34915,0.0137112225000613,1.33543877749994,Nausicaa,Nausicaa,-0.0611447157714752,-0.127662468114172,1.22839207302135,0.0014585669554939,-0.00808335497296809,0.00673568247544028,0.999943579676577,0.00302626226499308,-0.0161468505546092,0.0134963541460216,0,1.29363717749994,static_reference,static_reference
28329,1.3653114,0.0137895325001661,1.35152186749983,Nausicaa,Nausicaa,-0.0611435261211724,-0.127685490095075,1.22837784795741,0.00128418726042122,-0.00794527446485719,0.00671433269104988,0.999945069097934,0.00267526807745807,-0.0158730976697836,0.0134504340995341,0,1.30972026749983,static_reference,static_reference
28332,1.3809695,0.0137003299997855,1.36726917000021,Nausicaa,Nausicaa,-0.0611525914655196,-0.12768237746717,1.22836806560788,0.00140249337070861,-0.00797434508540822,0.00667616399677939,0.999944934317431,0.00291168188999818,-0.0159297591005077,0.01337605658771,0,1.32546757000021,static_reference,static_reference
28335,1.3965283,0.013500622500058,1.38302767749994,Nausicaa,Nausicaa,-0.0611300375108516,-0.127657109978145,1.22839453040065,0.00132427124601502,-0.00806625166374089,0.00671055340689567,0.999944073617489,0.00275701384614877,-0.0161145253311191,0.0134438704432413,0,1.34122607749994,static_reference,static_reference
28338,1.4124109,0.0134771049998225,1.39893379500018,Nausicaa,Nausicaa,-0.0611255284964526,-0.12766290464676,1.22838068017254,0.00125534061765562,-0.00803405305092117,0.00675323062572736,0.999944134433332,0.00261939300936276,-0.0160509424377836,0.0135280328117092,0,1.35713219500018,static_reference,static_reference
28341,1.4281292,0.0134388750000508,1.41469032499995,Nausicaa,Nausicaa,-0.0611504313911011,-0.12769514589275,1.22836616944496,0.00133123531693802,-0.00801198486682774,0.00668869229237144,0.999944647121251,0.00276986100136255,-0.0160059577347806,0.013400093206026,0,1.37288872499995,static_reference,static_reference
28344,1.4436219,0.0137449825000134,1.42987691749999,Nausicaa,Nausicaa,-0.0611579078776232,-0.12769118907368,1.22838915941666,0.00134259952550012,-0.00798332649434723,0.00668796694604924,0.999944865991484,0.00279219417615882,-0.0159484902466391,0.0133987380709157,0,1.38807531749999,static_reference,static_reference
28348,1.4595886,0.0140673199997133,1.44552128000029,Nausicaa,Nausicaa,-0.0611350390633012,-0.127642881136716,1.22839884296583,0.00138926445088867,-0.00808740619463866,0.00675502151207572,0.999943515149581,0.00288801407016001,-0.0161558325338755,0.013533930321138,0,1.40371968000029,static_reference,static_reference
28351,1.4746916,0.0132840749998212,1.46140752500018,Nausicaa,Nausicaa,-0.061153686273277,-0.127686371938717,1.22835675874296,0.00120382124204544,-0.00797957213421104,0.00668700542514388,0.999945079092555,0.00251455134838462,-0.0159428432275046,0.0133945910157755,0,1.41960592500018,static_reference,static_reference
28354,1.4901592,0.0136380350002548,1.47652116499975,Nausicaa,Nausicaa,-0.0611604365114749,-0.127699548312373,1.22834998233072,0.00129343648361982,-0.00799859865010557,0.00669188907126068,0.999944782506692,0.00269412882105029,-0.0159796829688428,0.0134058435262316,0,1.43471956499975,static_reference,static_reference
28357,1.5052422,0.0134569525001807,1.49178524749982,Nausicaa,Nausicaa,-0.0611293037960602,-0.127668546506098,1.22835178949919,0.00129277063523292,-0.00803472483190018,0.00673650647065099,0.999944194153619,0.00269399925396283,-0.0160518246919187,0.0134951833026904,0,1.44998364749982,static_reference,static_reference
28360,1.5207677,0.013641200000224,1.50712649999978,Nausicaa,Nausicaa,-0.0611360654372555,-0.127696139223108,1.22833483671409,0.00128754111650888,-0.00786489028422836,0.0066616960876563,0.999946052316787,0.002680064359643,-0.0157124240746037,0.0133449694638859,0,1.46532489999978,static_reference,static_reference
28363,1.5367774,0.0137228024999371,1.52305459750006,Nausicaa,Nausicaa,-0.0611364260496984,-0.127664889034566,1.22835562475933,0.00125184422069867,-0.00796637294291513,0.00670123099581996,0.999945030134818,0.00261065343702774,-0.0159157642029895,0.0134237738394035,0,1.48125299750006,static_reference,static_reference
28366,1.5522794,0.0132976899998752,1.53898171000012,Nausicaa,Nausicaa,-0.0611642860908981,-0.127678175427538,1.22837357605394,0.00132537961670168,-0.00795665337523805,0.00670896359272868,0.999944960907074,0.00275772700646263,-0.0158953163955045,0.0134403823413724,0,1.49718011000012,static_reference,static_reference
28369,1.5683296,0.0134234274999745,1.55490617250003,Nausicaa,Nausicaa,-0.0611232123377305,-0.127640904636527,1.22840014539476,0.00134317534877572,-0.0080285292769455,0.00675642486131837,0.999944043094775,0.00279505181773321,-0.0160386975470462,0.0135358152465031,0,1.51310457250003,static_reference,static_reference
28372,1.5833096,0.0134176174999204,1.56989198250008,Nausicaa,Nausicaa,-0.0611461974694061,-0.127734507068263,1.22839363115432,0.0011409458361098,-0.00796205612186704,0.00668509472017551,0.999945305210987,0.00238852557823055,-0.0159086576487793,0.0133897210868496,0,1.52809038250008,static_reference,static_reference
28375,1.5988544,0.0133952775002352,1.58545912249976,Nausicaa,Nausicaa,-0.0611585162213392,-0.127696385740925,1.22837179597529,0.0013037918298967,-0.00796813768581673,0.00669374453970144,0.999944999833852,0.00271446084970555,-0.015918616668934,0.0134096311592086,0,1.54365752249976,static_reference,static_reference
28379,1.614243,0.0134826225003828,1.60076037749962,Nausicaa,Nausicaa,-0.0611323837573755,-0.127667092881285,1.22836404376056,0.00126827531115057,-0.00792859747280316,0.00672438213813482,0.999945154248327,0.00264337602884205,-0.0158399308839366,0.0134702350875167,0,1.55895877749962,static_reference,static_reference
28382,1.6295725,0.0134974175000246,1.61607508249998,Nausicaa,Nausicaa,-0.0611476344921019,-0.127703005586829,1.22834787072884,0.00139007468693345,-0.00796506334738206,0.00669254787136494,0.999944916113496,0.00288697881814303,-0.0159113142879011,0.0134086015326125,0,1.57427348249998,static_reference,static_reference
28385,1.6450696,0.0136074425000586,1.63146215749994,Nausicaa,Nausicaa,-0.0611647161963594,-0.127694528427838,1.22838209953614,0.00132629307964752,-0.0079536654975304,0.00669441672210049,0.999945080960235,0.00275928259885971,-0.0158893684576539,0.0134112908551493,0,1.58966055749994,static_reference,static_reference
28388,1.6599686,0.0132495749998251,1.64671902500017,Nausicaa,Nausicaa,-0.0611374361099202,-0.127670141563958,1.22839491708625,0.00129813694503018,-0.0080490789992884,0.00675485428102912,0.999943947984774,0.00270522212441815,-0.0160804112147352,0.0135320113721097,0,1.60491742500017,static_reference,static_reference
28391,1.6751376,0.0134659375003267,1.66167166249967,Nausicaa,Nausicaa,-0.0611292932234512,-0.127670722515414,1.2283760520695,0.00125191543049056,-0.00805103549725527,0.00674319751129642,0.999944069847159,0.00261261120687969,-0.0160849801702194,0.013507957284915,0,1.61987006249967,static_reference,static_reference
28394,1.6906535,0.0136403800004321,1.67701311999957,Nausicaa,Nausicaa,-0.0611485401490949,-0.127706043241948,1.2283572958384,0.00122206279136177,-0.0079530022866831,0.00672040119544115,0.999945044752428,0.00255121081261427,-0.0158893735461795,0.0134616077085916,0,1.63521151999957,static_reference,static_reference
28397,1.7064917,0.0135228675003652,1.69296883249963,Nausicaa,Nausicaa,-0.0611536086135443,-0.127677668195377,1.22836423676409,0.00127021050712406,-0.00797405564500966,0.00667450585486587,0.999945124481054,0.0026470663598146,-0.0159309539325055,0.0133706316324216,0,1.65116723249963,static_reference,static_reference
28400,1.7221747,0.0136952800003953,1.7084794199996,Nausicaa,Nausicaa,-0.0611279069570032,-0.127657970989178,1.22837269854557,0.0012963665375835,-0.00804108375953078,0.00671782691823088,0.999944264050387,0.00270097758082658,-0.0160645445849695,0.0134578960525267,0,1.6666778199996,static_reference,static_reference
28403,1.737729,0.0137661550000968,1.7239628449999,Nausicaa,Nausicaa,-0.0611303686802644,-0.127683899221506,1.22834941553439,0.00127011868754763,-0.00794991932299907,0.00670904566832479,0.999945085635955,0.00264710758251448,-0.0158825906877749,0.0134396487907582,0,1.6821612449999,static_reference,static_reference
28407,1.7537663,0.0133248775001178,1.74044142249988,Nausicaa,Nausicaa,-0.0611648497442208,-0.12769429037405,1.22837425513858,0.00135257316141228,-0.00800810904846784,0.00667961940971377,0.999944710181444,0.00281234258357177,-0.0159979456102652,0.013382275124534,0,1.69863982249988,static_reference,static_reference
28409,1.7687553,0.0139847825000799,1.75477051749992,Nausicaa,Nausicaa,-0.0610843832361404,-0.127705506104458,1.22835886134243,0.00131732146952361,-0.00785591095806742,0.00661038980435692,0.999946424601738,0.0027387037532306,-0.0156942083929048,0.0132427867069799,0,1.71296891749992,static_reference,static_reference
28413,1.7847245,0.013884545000152,1.77083995499985,Nausicaa,Nausicaa,-0.0611347637500329,-0.12767310420655,1.22838568340771,0.00131343914166493,-0.00804167917561735,0.00676015242595826,0.999943951735714,0.00273581346236542,-0.0160653898712208,0.0135428331385661,0,1.72903835499985,static_reference,static_reference
28416,1.7996685,0.013843572499872,1.78582492750013,Nausicaa,Nausicaa,-0.0611572586108421,-0.127709633411741,1.22836332670587,0.00147938305042698,-0.00799747309039639,0.00670738308672015,0.999944429887024,0.00306628196255278,-0.015974891211237,0.0134398027750209,0,1.74402332750013,static_reference,static_reference
28419,1.8143261,0.0139926499999112,1.80033345000009,Nausicaa,Nausicaa,-0.0611499263697788,-0.127685511135493,1.22837800283544,0.00134913698065501,-0.00799976154527162,0.00668647527963876,0.999944735819416,0.00280546719095855,-0.0159812772121359,0.0133959082869923,0,1.75853185000009,static_reference,static_reference
28422,1.8298086,0.0143145625000976,1.8154940374999,Nausicaa,Nausicaa,-0.0611364564069195,-0.12765256468008,1.2283848292967,0.00133020131154374,-0.008049132228581,0.00674666622470056,0.999943960694643,0.00276922470320797,-0.0160801064358365,0.0135161491002909,0,1.7736924374999,static_reference,static_reference
28425,1.8453376,0.0137932700002792,1.83154432999972,Nausicaa,Nausicaa,-0.0611702760166977,-0.127729864905089,1.22832339727579,0.00102599994542676,-0.0079754105720905,0.0067365918498697,0.999944977726558,0.00215961708088685,-0.0159367946077246,0.0134909302836216,0,1.78974272999972,static_reference,static_reference
28428,1.8609652,0.0139027625001869,1.84706243749981,Nausicaa,Nausicaa,-0.0610761625259639,-0.12776117603535,1.22836917088605,0.00113117424043876,-0.00790166616122037,0.00658352602689157,0.999946469218112,0.00236656618342192,-0.0157882480389687,0.0131862490398859,0,1.80526083749981,static_reference,static_reference
28431,1.8770175,0.0136133975001738,1.86340410249983,Nausicaa,Nausicaa,-0.0611515191142785,-0.127679456759805,1.22837112541537,0.00130463121395618,-0.00796515900113173,0.00669150903227719,0.999945037432735,0.00271606408544188,-0.0159126540667932,0.0134051642585251,0,1.82160250249983,static_reference,static_reference
28434,1.8925619,0.013384140000126,1.87917775999987,Nausicaa,Nausicaa,-0.061144117764439,-0.12764981104489,1.22838896076604,0.00130136124262605,-0.00804732475768033,0.00675171309267103,0.999943979127568,0.00271159687665031,-0.0160768675876857,0.0135257749599856,0,1.83737615999987,static_reference,static_reference
28437,1.9087486,0.0138234700001464,1.89492512999985,Nausicaa,Nausicaa,-0.0611489089194287,-0.127707363271538,1.22836478843443,0.00134375255741306,-0.00798349513384171,0.00669931529614793,0.999944787130307,0.00279468369485412,-0.0159487803631254,0.0134214563201082,0,1.85312352999985,static_reference,static_reference
28441,1.9240663,0.0136396225002098,1.91042667749979,Nausicaa,Nausicaa,-0.0611306128378142,-0.127684739645399,1.22835021368659,0.00124598973586564,-0.00795172431707539,0.00671595925142622,0.999945055231184,0.00259898034886654,-0.0158865070241895,0.0134530993899352,0,1.86862507749979,static_reference,static_reference
28444,1.9396135,0.0136789750001714,1.92593452499983,Nausicaa,Nausicaa,-0.061143290490954,-0.127671833000193,1.22837629503213,0.0013038596921174,-0.00801776205253044,0.00675223549532691,0.999944209822422,0.00271620130988791,-0.016017706471753,0.0135267733219002,0,1.88413292499983,static_reference,static_reference
28447,1.9556282,0.0134873625001595,1.94214083749984,Nausicaa,Nausicaa,-0.0611508036119673,-0.127673726629284,1.22836024176135,0.00124831750949181,-0.00791990176194964,0.00669864598821016,0.999945421011268,0.00260293276310897,-0.0158228751657697,0.0134184161938011,0,1.90033923749984,static_reference,static_reference
28450,1.9715929,0.0134406299997314,1.95815227000027,Nausicaa,Nausicaa,-0.0611451306522476,-0.12774769842633,1.22839129555758,0.00116476340604893,-0.0079776240876009,0.00670385565979466,0.999945028068752,0.00243667237574598,-0.0159394292072369,0.0134276675293453,0,1.91635067000027,static_reference,static_reference
28453,1.9868141,0.0135786150001283,1.97323548499987,Nausicaa,Nausicaa,-0.0611366574628826,-0.127668030830256,1.2283971836477,0.00132524740750419,-0.00807156706747461,0.00672796814049654,0.999943912411634,0.00275931887780739,-0.0161250950560802,0.0134787356113281,0,1.93143388499987,static_reference,static_reference
28456,2.0027801,0.0134706450002211,1.98930945499978,Nausicaa,Nausicaa,-0.0611465528182186,-0.127714447596768,1.22842812799142,0.00119015808198694,-0.00803912804978751,0.00673703661153281,0.999944282588602,0.00248882694521657,-0.0160620146100559,0.0134946083520485,0,1.94750785499978,static_reference,static_reference
28459,2.0183103,0.013694109999846,2.00461619000015,Nausicaa,Nausicaa,-0.0611639508926869,-0.12769463073749,1.22837391136118,0.00129071955505043,-0.00798546311127154,0.00669407238948871,0.99994487638908,0.00268855271429091,-0.0159534422231316,0.0134101291208695,0,1.96281459000015,static_reference,static_reference
28463,2.0344978,0.0137347625003277,2.02076303749967,Nausicaa,Nausicaa,-0.0611344873953569,-0.127723586145668,1.22839520957478,0.00117793923301261,-0.00799010380725958,0.00670219908741534,0.999944924097175,0.00246316760731054,-0.0159642160115641,0.013424597438299,0,1.97896143749967,static_reference,static_reference
28466,2.0499599,0.0135442450000302,2.03641565499997,Nausicaa,Nausicaa,-0.0611445020788821,-0.127698834874145,1.22838349965732,0.00130800461016038,-0.00798789129993152,0.00668471055429687,0.999944897162501,0.00272300863230077,-0.015958092332364,0.0133916861616448,0,1.99461405499997,static_reference,static_reference
28469,2.0652538,0.0133986324998016,2.0518551675002,Nausicaa,Nausicaa,-0.0611394195977715,-0.127675490522967,1.22837637296338,0.00130572502123448,-0.00799101633902097,0.00671958742132904,0.999944641410176,0.00271904797046666,-0.0159642781642251,0.0134614208505307,0,2.0100535675002,static_reference,static_reference
28472,2.0809814,0.0137537600001084,2.06722763999989,Nausicaa,Nausicaa,-0.0611288058932856,-0.127669815268389,1.22841156453665,0.00148660720036076,-0.00806437199485824,0.00677311823040779,0.999943438786813,0.00308269294419963,-0.0161083904215314,0.0135716246884516,0,2.02542603999989,static_reference,static_reference
28475,2.0964148,0.0137861575003242,2.08262864249968,Nausicaa,Nausicaa,-0.0611441564675592,-0.12768116111626,1.22837038391143,0.0013227498943304,-0.00796383369135663,0.00669416539708104,0.999945006405497,0.00275232854517864,-0.0159097532215065,0.013410762003807,0,2.04082704249968,static_reference,static_reference
28478,2.1127024,0.0135050275000474,2.09919737249995,Nausicaa,Nausicaa,-0.0611455639497866,-0.127684258294928,1.22835497760107,0.00131287375695127,-0.0079761499448536,0.00669115026560139,0.999944941435617,0.00273269250079664,-0.0159345266195621,0.0134046101941521,0,2.05739577249995,static_reference,static_reference
28481,2.1278445,0.0136506249999587,2.11419387500004,Nausicaa,Nausicaa,-0.0611570654914054,-0.12772568534349,1.22838584301299,0.00118615802581512,-0.00797091716801958,0.0066914634838027,0.999945139407699,0.002479177036534,-0.0159257586906014,0.0134032032474311,0,2.07239227500004,static_reference,static_reference
28484,2.143403,0.0135417399998822,2.12986126000012,Nausicaa,Nausicaa,-0.061137175616613,-0.127671386967157,1.22837523079403,0.00126219838765704,-0.00805953886035985,0.00674810426311907,0.999943955318218,0.00263337292531217,-0.0161018352151907,0.0135179616107259,0,2.08805966000012,static_reference,static_reference
28487,2.1593781,0.013402920000172,2.14597517999983,Nausicaa,Nausicaa,-0.061134926824811,-0.127667179186216,1.2283929170027,0.00137236746197989,-0.00806047350486549,0.00673221028966509,0.999943909786465,0.00285348437008706,-0.0161022604804965,0.0134879466870824,0,2.10417357999983,static_reference,static_reference
28491,2.1742786,0.0136521924998419,2.16062640750016,Nausicaa,Nausicaa,-0.0611449966689227,-0.12768157339143,1.22835678095135,0.0012356651013542,-0.00796315275663941,0.00669950761152397,0.999945087456154,0.00257822204136037,-0.0159095454091435,0.0134200601596613,0,2.11882480750016,static_reference,static_reference
28494,2.1898196,0.0137994475001448,2.17602015249985,Nausicaa,Nausicaa,-0.0611392743989405,-0.127680092933623,1.22836428862648,0.00126496769424446,-0.00795925864768817,0.00670813328373312,0.999945023991999,0.0026369162625477,-0.0159013411226239,0.0134377686196968,0,2.13421855249985,static_reference,static_reference
28497,2.2048532,0.0134556800003045,2.1913975199997,Nausicaa,Nausicaa,-0.0611518807906012,-0.127686469239039,1.22839875239544,0.00133869318038865,-0.00806150405874809,0.00673618007889782,0.999943920392951,0.00278620861702348,-0.0161047647443924,0.0134953480382013,0,2.1495959199997,static_reference,static_reference
28500,2.2205314,0.0133928150002654,2.20713858499973,Nausicaa,Nausicaa,-0.0610777036302698,-0.127701217243258,1.22835271506688,0.00137466896460211,-0.007865597414404,0.00663189885713468,0.999946128839,0.00285387367603961,-0.0157127605881506,0.0132867393996035,0,2.16533698499973,static_reference,static_reference
28503,2.2363813,0.0131746100001544,2.22320668999985,Nausicaa,Nausicaa,-0.0611480588451592,-0.127679165508001,1.22836070853763,0.00127850020671111,-0.007984182000091,0.0067192088397226,0.999944733726609,0.00266449598401396,-0.0159509768707381,0.013460209265582,0,2.18140508999985,static_reference,static_reference
28506,2.2518709,0.013385602500275,2.23848529749973,Nausicaa,Nausicaa,-0.0611402142697923,-0.1276505281388,1.2284102648634,0.00138558952471634,-0.00807893691874015,0.0067272194590833,0.999943776138579,0.00288009986645514,-0.0161390236574338,0.0134782339505924,0,2.19668369749973,static_reference,static_reference
28509,2.2669781,0.0134897000000125,2.25348839999999,Nausicaa,Nausicaa,-0.0611476104282086,-0.127671565395,1.22839806847941,0.00123760600455011,-0.00800803205811133,0.00673462215646014,0.999944490768534,0.00258327024299948,-0.0159991880131758,0.0134904539257868,0,2.21168679999999,static_reference,static_reference
28512,2.282008,0.0138061550000291,2.26820184499997,Nausicaa,Nausicaa,-0.0611484935045494,-0.127696214191673,1.228373786395,0.00128149436092754,-0.00797252168425625,0.00671756651041634,0.999944833963542,0.00267030110025369,-0.0159276201318131,0.0134569383398601,0,2.22640024499997,static_reference,static_reference
28515,2.2974552,0.0136445850004225,2.28381061499958,Nausicaa,Nausicaa,-0.0611357994126241,-0.127665827746598,1.22836967809078,0.00133959005718149,-0.00799496925574789,0.00670812259403234,0.999944641995917,0.00278665330030242,-0.0159717601214329,0.0134390410254643,0,2.24200901499958,static_reference,static_reference
28519,2.3134518,0.0130786075001962,2.3003731924998,Nausicaa,Nausicaa,-0.0610838176612157,-0.127706240085555,1.22835299450982,0.00133467474620529,-0.00789850931656518,0.00656946649667163,0.999946335711996,0.00277333303636285,-0.0157792894907973,0.0131613301613712,0,2.2585715924998,static_reference,static_reference
28522,2.3296717,0.0128926800004066,2.31677901999959,Nausicaa,Nausicaa,-0.0611417657058967,-0.127736051367539,1.22838696707571,0.00119883491579697,-0.00793232226187642,0.00670061337137821,0.999945369927191,0.00250415879225516,-0.0158483754122604,0.013421602151573,0,2.27497741999959,static_reference,static_reference
28525,2.3457111,0.0134268399999204,2.33228426000008,Nausicaa,Nausicaa,-0.0611483846364033,-0.127698515625177,1.22836408765492,0.001278614124489,-0.00795949483497917,0.0066861479775175,0.999945152002406,0.00266386465110048,-0.0159016886902749,0.0133940105759111,0,2.29048266000008,static_reference,static_reference
28528,2.36164,0.013517095000111,2.34812290499989,Nausicaa,Nausicaa,-0.0611572554082992,-0.12767354878569,1.22837318818097,0.00126871205434397,-0.00796210704510764,0.00674083303716243,0.999944776670737,0.00264496415560461,-0.0159069011605693,0.0135032434401628,0,2.30632130499989,static_reference,static_reference
28531,2.3775916,0.0133527100003771,2.36423888999962,Nausicaa,Nausicaa,-0.061146661868064,-0.127674479125681,1.22836024375237,0.00126217286806544,-0.00798655832114738,0.00672227686876731,0.999944714871544,0.00263191995389909,-0.0159559412495819,0.01346609235676,0,2.32243728999962,static_reference,static_reference
28534,2.3932423,0.0130796550002286,2.38016264499977,Nausicaa,Nausicaa,-0.0611414787060308,-0.127690544215949,1.22833930939442,0.00124991294445613,-0.00796899754505131,0.00667482167520813,0.999945188273519,0.00260640542593243,-0.0159211082187509,0.0133709257050409,0,2.33836104499977,static_reference,static_reference
28537,2.4080003,0.013185802500305,2.39481449749969,Nausicaa,Nausicaa,-0.0611466149143746,-0.127687156602736,1.22834428745375,0.00131677434601494,-0.00796691492724108,0.00670619416930653,0.999944909148313,0.00274060951013945,-0.0159159629151495,0.0134347363798433,0,2.3530128974997,static_reference,static_reference
28541,2.4236331,0.0133577625001249,2.41027533749988,Nausicaa,Nausicaa,-0.0611498519098606,-0.127656557256291,1.22841499686741,0.00139039997456849,-0.00804554823957151,0.00675924729992828,0.999943822680741,0.00288978467821756,-0.0160720883366044,0.0135422711245584,0,2.36847373749988,static_reference,static_reference
28544,2.4391827,0.0136632550001406,2.42551944499986,Nausicaa,Nausicaa,-0.0611508485164275,-0.127688753225242,1.22837568798374,0.00129847306336412,-0.00799973069356501,0.00667916329661572,0.999944852006445,0.00270401454483053,-0.0159819139672652,0.01338047278447,0,2.38371784499986,static_reference,static_reference
28547,2.4550577,0.0140237599998875,2.44103394000011,Nausicaa,Nausicaa,-0.0611455485932653,-0.127702793211111,1.2283668463723,0.00130144838242848,-0.00797118340504855,0.0066806903426279,0.999945065913011,0.00270960667708197,-0.0159247749579783,0.0133834913207899,0,2.39923234000011,static_reference,static_reference
28550,2.4710621,0.0138039350001368,2.45725816499986,Nausicaa,Nausicaa,-0.0611534568556926,-0.127684519415986,1.22836267777549,0.00129888416528477,-0.00798040066071689,0.00668206801452617,0.999944986522893,0.00270462360793453,-0.0159432402161579,0.0133862330483393,0,2.41545656499986,static_reference,static_reference
28553,2.4866645,0.0136220225002103,2.47304247749979,Nausicaa,Nausicaa,-0.0611451735070776,-0.127655186709891,1.22839537103091,0.0013356613408506,-0.00808254665494163,0.00677308515084173,0.99994350528712,0.00278102542877748,-0.0161467885909517,0.0135691812775538,0,2.43124087749979,static_reference,static_reference
28556,2.5015757,0.0139184000001294,2.48765729999987,Nausicaa,Nausicaa,-0.0611492984994473,-0.127701655719064,1.22836007639006,0.0013544921884392,-0.00798920334212012,0.00670824236523128,0.99994466720176,0.00281638391916804,-0.015960027584863,0.0134395011400889,0,2.44585569999987,static_reference,static_reference
28559,2.5178031,0.0133842699998648,2.50441883000014,Nausicaa,Nausicaa,-0.0611522023277524,-0.127696522392019,1.22836819340786,0.00127810668875453,-0.00796224664021296,0.00670770667297949,0.99994498635821,0.00266322966956093,-0.0159071417276952,0.0134371328332532,0,2.46261723000014,static_reference,static_reference
28562,2.5332818,0.0137148975002109,2.51956690249979,Nausicaa,Nausicaa,-0.0611386114492501,-0.127673708722536,1.22839471072776,0.00137046479214472,-0.00802401356139055,0.00676027907867138,0.99994401626261,0.00284963521697506,-0.0160292856585982,0.0135439484457306,0,2.47776530249979,static_reference,static_reference
28565,2.5487905,0.0133389600000395,2.53545153999996,Nausicaa,Nausicaa,-0.0611437778268479,-0.127666064386162,1.2283891650576,0.00131597906628495,-0.00806861032671711,0.00672118048150501,0.999943994161387,0.00274063137545697,-0.0161193250546256,0.0134650004671945,0,2.49364993999996,static_reference,static_reference
28569,2.5646764,0.0139058224999596,2.55077057750004,Nausicaa,Nausicaa,-0.0611485927815758,-0.127698406214379,1.22836765704174,0.0013057865179935,-0.00796396683454865,0.00668943404293818,0.999945059303766,0.00271832580969798,-0.0159102598674992,0.0134010286860137,0,2.50896897750004,static_reference,static_reference
28572,2.5797342,0.0134465224997674,2.56628767750023,Nausicaa,Nausicaa,-0.0611493960496437,-0.127689150074872,1.22836828677736,0.00134935019910054,-0.0079769422996372,0.00668139643731857,0.999944951778465,0.00280550596156307,-0.0159356497334267,0.0133856839104189,0,2.52448607750023,static_reference,static_reference
28575,2.5951878,0.0134905600001429,2.58169723999986,Nausicaa,Nausicaa,-0.0611272725828452,-0.127651801002364,1.22837747851359,0.0013148990364469,-0.00804501372594815,0.00675458514135792,0.999943960616914,0.00273868929317555,-0.0160720545039998,0.0135317305617466,0,2.53989563999986,static_reference,static_reference
28578,2.6111519,0.0134646125003197,2.59768728749968,Nausicaa,Nausicaa,-0.0611399705414126,-0.12767929177775,1.22835493136678,0.00118390864144678,-0.00797061599093863,0.00672098415348965,0.999944946491087,0.00247514407378868,-0.015925113416126,0.0134622148504101,0,2.55588568749968,static_reference,static_reference
28581,2.6268377,0.0133397200002417,2.61349797999976,Nausicaa,Nausicaa,-0.0611582716247676,-0.12770076348435,1.22836955456712,0.00130311499941853,-0.0079975143201798,0.00669674178864971,0.999944746126211,0.00271355024624842,-0.0159773713693418,0.0134157015904234,0,2.57169637999976,static_reference,static_reference
28584,2.6422321,0.0138382724999944,2.62839382750001,Nausicaa,Nausicaa,-0.0611481282201349,-0.127688430795005,1.2283856404797,0.00123095441606179,-0.00803516581775453,0.00675887598648129,0.999944117667036,0.00257072271354591,-0.0160534833779626,0.0135389365303894,0,2.58659222750001,static_reference,static_reference
28587,2.6584125,0.0135084099999549,2.64490409000005,Nausicaa,Nausicaa,-0.06115412023607,-0.127696454682212,1.22836508279433,0.00131398711429337,-0.00794113987870339,0.00672511522625696,0.999944990767234,0.00273498739882576,-0.0158643981038212,0.0134724625131267,0,2.60310249000005,static_reference,static_reference
28591,2.67447,0.0135875350001653,2.66088246499983,Nausicaa,Nausicaa,-0.0611342265986948,-0.12769584371152,1.22841163620096,0.00117012766466108,-0.00803443405910197,0.00672790387314462,0.999944405444659,0.00244855295492156,-0.016052919217603,0.0134760064481232,0,2.61908086499983,static_reference,static_reference
28594,2.690095,0.0137128625000215,2.67638213749998,Nausicaa,Nausicaa,-0.0611226648552841,-0.127651772738522,1.22840780054889,0.00141605563260053,-0.0080590583911673,0.00675374224820048,0.999943715080973,0.00294119483374341,-0.016098777605339,0.0135317147545134,0,2.63458053749998,static_reference,static_reference
28597,2.7054197,0.0131802725002222,2.69223942749978,Nausicaa,Nausicaa,-0.061132583917727,-0.127691225087708,1.22836810251072,0.00138420196671326,-0.00797773474542736,0.00669268181016298,0.999944822349431,0.00287540516093397,-0.0159367356511262,0.0134088151406328,0,2.65043782749978,static_reference,static_reference
28600,2.7209303,0.0136177399998086,2.70731256000019,Nausicaa,Nausicaa,-0.0611542234593238,-0.127701430229713,1.22836880016899,0.00127678688133697,-0.0079572240382312,0.00671794322719782,0.999944959305092,0.00266068490331423,-0.0158970869404986,0.0134575728912827,0,2.66551096000019,static_reference,static_reference
28603,2.7358021,0.0136336050000324,2.72216849499997,Nausicaa,Nausicaa,-0.0611593782298031,-0.12766793261677,1.2283644486261,0.00124833598054564,-0.00793495943373957,0.00668613538320098,0.999945385343471,0.0026029740520141,-0.0158530230681357,0.0133934347821006,0,2.68036689499997,static_reference,static_reference
28606,2.7511609,0.0135590450000657,2.73760185499993,Nausicaa,Nausicaa,-0.0611285766009925,-0.127684297161929,1.22835121176334,0.00128149177261232,-0.00795565790417435,0.0066979599324854,0.99994509980243,0.00266975657025689,-0.0158939446857908,0.0134176719317036,0,2.69580025499993,static_reference,static_reference
28609,2.7672103,0.0135841999997939,2.75362610000021,Nausicaa,Nausicaa,-0.0611489610472101,-0.12767997088949,1.22836455867532,0.00131314134860721,-0.00797814420940173,0.00667836170166623,0.999945010667964,0.00273305068819057,-0.0159385465496057,0.0133790402237906,0,2.71182450000021,static_reference,static_reference
28612,2.7831871,0.0134066675003014,2.7697804324997,Nausicaa,Nausicaa,-0.0611596367064688,-0.127690709916731,1.2283562375295,0.00127862341502576,-0.0079739052140727,0.00670861897900598,0.999944886675858,0.00266443490952048,-0.015930449691001,0.0134389994405646,0,2.7279788324997,static_reference,static_reference
28615,2.7986514,0.0135511225000965,2.7851002774999,Nausicaa,Nausicaa,-0.0611586021709681,-0.127687162409767,1.22836306769757,0.00133480718465984,-0.00797831431317843,0.00667167844658146,0.999945025237491,0.00277628130424984,-0.015938615436816,0.0133660179999462,0,2.7432986774999,static_reference,static_reference
28619,2.8147579,0.0136448800002664,2.80111301999973,Nausicaa,Nausicaa,-0.0611359537626253,-0.127679392874428,1.22835292628128,0.00127389862081278,-0.00795979794567542,0.00670321571668813,0.999945041338785,0.00265470848023369,-0.0159023127675739,0.0134280759076966,0,2.75931141999973,static_reference,static_reference
28622,2.8299386,0.0133025400000668,2.81663605999993,Nausicaa,Nausicaa,-0.0611521223274503,-0.127677938362948,1.22838386660072,0.00133056411078274,-0.00798117875967333,0.00667848449433128,0.999944962600248,0.00276794148134394,-0.0159443822528555,0.0133795725913909,0,2.77483445999993,static_reference,static_reference
28625,2.8448789,0.0134296325004202,2.83144926749958,Nausicaa,Nausicaa,-0.0611486120184148,-0.127678802732543,1.22837665332312,0.00131786162243323,-0.00795294211292299,0.00669340920206241,0.999945104606121,0.00274239270812297,-0.0158880375189285,0.0134091394651206,0,2.78964766749958,static_reference,static_reference
28628,2.8608258,0.0133264675000905,2.84749933249991,Nausicaa,Nausicaa,-0.0611409027619638,-0.127683200464043,1.2283502288452,0.00124421610575218,-0.00794882626928533,0.00668219014616014,0.999945306715359,0.00259485736504178,-0.0158808223833907,0.013385517011967,0,2.80569773249991,static_reference,static_reference
28631,2.8757515,0.013588172499762,2.86216332750024,Nausicaa,Nausicaa,-0.0611568406025167,-0.127700146630904,1.22836966588973,0.00130377715873709,-0.00797827501144575,0.00668596740209531,0.999944971052338,0.00271444392631572,-0.0159389127963168,0.0133941045229663,0,2.82036172750024,static_reference,static_reference
28634,2.8917254,0.0133008375001087,2.87842456249989,Nausicaa,Nausicaa,-0.0611508912395402,-0.127678254938081,1.22836379015219,0.00124958333456883,-0.00796278850591832,0.00670687090638268,0.999945023700476,0.00260617279643723,-0.015908610921383,0.0134350088807408,0,2.83662296249989,static_reference,static_reference
28637,2.9073145,0.0137730399999003,2.8935414600001,Nausicaa,Nausicaa,-0.0611351579050967,-0.127674612906885,1.22838896142879,0.001270970339427,-0.00804746101312252,0.00672830672191169,0.999944174888926,0.00265043599727743,-0.0160776132093528,0.0134784684272518,0,2.8517398600001,static_reference,static_reference
28640,2.9228656,0.0140090549998648,2.90885654500014,Nausicaa,Nausicaa,-0.0611387445013187,-0.127715326951468,1.22838360558322,0.00114026892075895,-0.00794786969606187,0.00667705032768341,0.999945472589883,0.00238685336486094,-0.0158803128252874,0.0133735827734862,0,2.86705494500014,static_reference,static_reference
28643,2.938548,0.013840159999961,2.92470784000004,Nausicaa,Nausicaa,-0.0611486715316743,-0.127707480604065,1.22835773495663,0.00132840507805547,-0.00795214051698134,0.00666807761976421,0.999945266273111,0.00276306789416636,-0.0158863629327987,0.0133586355587169,0,2.88290624000004,static_reference,static_reference
28647,2.9543236,0.0134961275000256,2.94082747249997,Nausicaa,Nausicaa,-0.0611449391296653,-0.127684859204189,1.22837842838657,0.00131829289112243,-0.00804713932376701,0.00672493095253263,0.99994413891789,0.00274502957637166,-0.0160763412224696,0.0134724759922496,0,2.89902587249997,static_reference,static_reference
28650,2.9703524,0.0141690400002965,2.9561833599997,Nausicaa,Nausicaa,-0.0611508371901281,-0.12767777499648,1.22837997404956,0.00133638488697464,-0.00797586145740162,0.00670509462860471,0.999944819185273,0.00277993655703991,-0.0159335957050678,0.0134328759643802,0,2.9143817599997,static_reference,static_reference
28653,2.9854099,0.0139648525002512,2.97144504749975,Nausicaa,Nausicaa,-0.0611246369804777,-0.127668203935253,1.22833744074052,0.00130150847550567,-0.00782516643203335,0.00671933635625352,0.999945960222317,0.00270837037383879,-0.0156326332844735,0.01346036662212,0,2.92964344749975,static_reference,static_reference
28656,3.000813,0.0138916250002006,2.9869213749998,Nausicaa,Nausicaa,-0.0611360087542388,-0.127653085772831,1.22837684138169,0.00138927596111331,-0.00806365502486415,0.00673944649254699,0.999943812041916,0.00288746356707621,-0.016108374610852,0.0135027029706726,0,2.9451197749998,static_reference,static_reference
