frame_number,t_read_host_s,vicon_latency_s,t_capture_host_s,subject_name,segment_name,x_m,y_m,z_m,qx,qy,qz,qw,roll_rad,pitch_rad,yaw_rad,is_occluded,t_elapsed_s,phase_name,phase_type
63075,0.0967073,0.013698199999908,0.083009100000092,Nausicaa,Nausicaa,0.0145085320035451,-0.136843473805812,1.23007941728883,-0.00164082655774708,0.0496730363169261,0.00187285405881157,0.998762428993471,-0.00348083458214784,0.0993804862406806,0.00392345123325047,0,-0.012533999999908,unlabeled,unlabeled
63084,0.1403373,0.013558600000124,0.126778699999876,Nausicaa,Nausicaa,0.0144856196781926,-0.136864499005183,1.23006049361278,-0.00158361844205203,0.0496731809147205,0.00185615303109462,0.998762545326149,-0.00336432631151917,0.0993810566310354,0.00388421432388457,0,0.031235599999876,static_reference,static_reference
63087,0.1562022,0.0134054999998625,0.142796700000137,Nausicaa,Nausicaa,0.0144735953334401,-0.136865639814995,1.23008002753891,-0.00147247652263667,0.0497079583102899,0.00187812145379447,0.998760944046831,-0.00314355729022493,0.09945105971021,0.00391734258801691,0,0.0472536000001375,static_reference,static_reference
63090,0.17131,0.0140724000002592,0.157237599999741,Nausicaa,Nausicaa,0.014505797825732,-0.136840876493145,1.23010325931989,-0.00162138164877579,0.0496489390886114,0.00187803737367892,0.998763649190612,-0.00344221403408818,0.0993322909287789,0.00393182227161866,0,0.0616944999997408,static_reference,static_reference
63093,0.1866633,0.0139040999997633,0.172759200000237,Nausicaa,Nausicaa,0.014504623900874,-0.136845923827876,1.23003121553369,-0.00170665408023983,0.0497697989112625,0.00202815449207211,0.998757198240663,-0.00362893102924308,0.0995734284613522,0.00424217303947289,0,0.0772161000002367,static_reference,static_reference
63096,0.2025572,0.0143597999999656,0.188197400000034,Nausicaa,Nausicaa,0.0144845302371538,-0.136862521679836,1.23012386355346,-0.00173120591128646,0.049602792563653,0.00192358338357098,0.998765671077529,-0.00366701884525417,0.0992392843230558,0.00403402238799154,0,0.0926543000000344,static_reference,static_reference
63099,0.2178282,0.0142796000000089,0.203548599999991,Nausicaa,Nausicaa,0.0145423643433502,-0.136799441085568,1.23007060657501,-0.00172301572690351,0.0496316996834804,0.00207956286069684,0.998763936584437,-0.00366626409996092,0.0992966313485705,0.00434644075791893,0,0.108005499999991,static_reference,static_reference
63102,0.2332624,0.014054500000384,0.219207899999616,Nausicaa,Nausicaa,0.0144893000285042,-0.136834698117282,1.23003906884872,-0.00168604525756353,0.0497934099837934,0.00196341731419389,0.998756185746064,-0.00358119016362215,0.0996210288765465,0.0041102486865383,0,0.123664799999616,static_reference,static_reference
63106,0.2485745,0.0138916000000791,0.234682899999921,Nausicaa,Nausicaa,0.0144714485349697,-0.13687808556836,1.23007632421651,-0.00156524109453197,0.0497001671859965,0.00190171088866787,0.998761146069317,-0.00333210001782806,0.0994350152918191,0.00397393539760074,0,0.139139799999921,static_reference,static_reference
63109,0.264762,0.0142765000000509,0.250485499999949,Nausicaa,Nausicaa,0.0144952917783969,-0.136854323708057,1.2300638829236,-0.00154247944638225,0.0496549163599632,0.0019061684940567,0.998763423719609,-0.00328665647451195,0.0993444779612908,0.00398044256959055,0,0.154942399999949,static_reference,static_reference
63112,0.2804815,0.0142564000002494,0.266225099999751,Nausicaa,Nausicaa,0.0144561955504794,-0.136831072771495,1.23009147725637,-0.00158443736497567,0.0496930505743181,0.00192761225118008,0.998761420257042,-0.00337319141065497,0.0994206006701133,0.00402782140842099,0,0.170681999999751,static_reference,static_reference
63115,0.2953045,0.0142383000002155,0.281066199999784,Nausicaa,Nausicaa,0.0144937575827624,-0.136850978775007,1.2300860640654,-0.00156639076095651,0.0496162449154247,0.00188843713300811,0.9987653420427,-0.00333272079884273,0.0992670037659477,0.00394708939502601,0,0.185523099999785,static_reference,static_reference
63118,0.3109749,0.0144320000003972,0.296542899999603,Nausicaa,Nausicaa,0.014492716304424,-0.13686207469363,1.23007852025439,-0.00141809221850337,0.0496168516297175,0.00187075831950514,0.99876556674333,-0.00303326334469035,0.0992688573648619,0.00389681478343734,0,0.200999799999603,static_reference,static_reference
63121,0.3258785,0.0143152000000555,0.311563299999945,Nausicaa,Nausicaa,0.0144847061948386,-0.136859579068973,1.23007094451676,-0.00142484894213637,0.0496208905732361,0.00189261166647308,0.998765315299491,-0.00304902334746102,0.0992768521329978,0.00394137139759192,0,0.216020199999945,static_reference,static_reference
63124,0.3414921,0.0136746000002859,0.327817499999714,Nausicaa,Nausicaa,0.0144841783858137,-0.136855471156501,1.23006294681462,-0.00165766825973731,0.049668957176297,0.00189825605555838,0.998762556092742,-0.00351716138356447,0.0993721623130848,0.00397610941889761,0,0.232274399999714,static_reference,static_reference
63127,0.3574079,0.0135255000000143,0.343882399999986,Nausicaa,Nausicaa,0.0144978502017972,-0.136883181703669,1.23006424127115,-0.00156906211784391,0.0496182268357533,0.00187169103527247,0.998765270913249,-0.00333642192322609,0.0992710178779078,0.00391374674696229,0,0.248339299999986,static_reference,static_reference
63131,0.373361,0.0134343999998237,0.359926600000176,Nausicaa,Nausicaa,0.01449411369024,-0.136866440034771,1.23006385432639,-0.00150763413244212,0.0496238459144924,0.00187632912651899,0.998765077655895,-0.00321359670984432,0.0992824954566374,0.00391695205934862,0,0.264383500000176,static_reference,static_reference
63134,0.3893595,0.0143855999999687,0.374973900000031,Nausicaa,Nausicaa,0.0145025498591299,-0.136827732587302,1.23003100511104,-0.00158733321712485,0.0497632441832567,0.00195736108435805,0.998757862867272,-0.00338228821378636,0.0995610488808487,0.00408809728025865,0,0.279430800000031,static_reference,static_reference
63137,0.4052444,0.0142467000005126,0.390997699999487,Nausicaa,Nausicaa,0.0144944137796284,-0.136848598305584,1.23007323486304,-0.00161707254004752,0.0496290683580308,0.00190707389862277,0.998764588739238,-0.00343637458113227,0.0992924176645309,0.00398960446613868,0,0.295454599999487,static_reference,static_reference
63140,0.4215094,0.0146148800002867,0.406894519999713,Nausicaa,Nausicaa,0.0144857889437391,-0.136863384526847,1.23007075894041,-0.00153288260945695,0.049634953022366,0.00185651888380838,0.99876452432343,-0.00326235225877106,0.0993047026779529,0.00387974337935934,0,0.311351419999713,static_reference,static_reference
63143,0.4367337,0.0148474000004518,0.421886299999548,Nausicaa,Nausicaa,0.0144820274041056,-0.136872796025957,1.23004682929675,-0.00155738877956853,0.0496699068341927,0.00183517447483549,0.998762788168401,-0.00330956388825796,0.0993746719113283,0.00383947046231052,0,0.326343199999548,static_reference,static_reference
63146,0.4518511,0.0145963475002103,0.43725475249979,Nausicaa,Nausicaa,0.0144850668588377,-0.136864775284932,1.23014720640374,-0.00115997368611899,0.0496507484454905,0.00175325963402648,0.998764428541839,-0.00250352712436184,0.0993380334285622,0.00363530372889954,0,0.34171165249979,static_reference,static_reference
63149,0.4676253,0.014966830000117,0.452658469999883,Nausicaa,Nausicaa,0.0144774063865926,-0.136827654902479,1.2300326932728,-0.00158767197482959,0.0497190000670578,0.0019804451835965,0.998760020308636,-0.00338507797910364,0.099472371720293,0.00413430268033412,0,0.357115369999883,static_reference,static_reference
63153,0.4839608,0.0139882875003599,0.46997251249964,Nausicaa,Nausicaa,0.0144878018745823,-0.136846328338847,1.23007772126168,-0.00148225961649707,0.0496134103241755,0.00185986683485834,0.998765664867286,-0.00316097352194708,0.0992617502042407,0.00388133738835329,0,0.37442941249964,static_reference,static_reference
63156,0.4994094,0.0145848799999334,0.484824520000067,Nausicaa,Nausicaa,0.0144868280169165,-0.136822992541996,1.2300733057701,-0.00152423217341115,0.049697358375017,0.00194806170563832,0.998761259932732,-0.00325439440781874,0.0994294029007632,0.0040628755471606,0,0.389281420000067,static_reference,static_reference
63159,0.5149654,0.0136129974998596,0.50135240250014,Nausicaa,Nausicaa,0.01448899465784,-0.136853151656816,1.23008006005617,-0.00148497754337139,0.0495933019580305,0.00191385829701323,0.998766557504312,-0.00317172602010726,0.0992213021678125,0.00398991974594474,0,0.40580930250014,static_reference,static_reference
63162,0.5306535,0.0136291625000728,0.517024337499927,Nausicaa,Nausicaa,0.0145143827669681,-0.136819726617317,1.23005241098121,-0.00160496593562674,0.0495393195505619,0.00183298183190047,0.9987692026091,-0.00340430419937408,0.09911300083287,0.00383932096754494,0,0.421481237499927,static_reference,static_reference
63165,0.5465137,0.0136215000000087,0.532892199999991,Nausicaa,Nausicaa,0.0144705034819842,-0.136848242305634,1.23006349428052,-0.00154326791576762,0.0496171233821354,0.00188010562769352,0.998765350116959,-0.00328547655238782,0.0992688816236957,0.00392806207599199,0,0.437349099999991,static_reference,static_reference
63168,0.561459,0.0139580575003871,0.547500942499613,Nausicaa,Nausicaa,0.0144799883749494,-0.136859450142958,1.23007688028618,-0.00147527310903597,0.0495802516750056,0.00187290073725973,0.998767297450174,-0.00314810757121029,0.0991953374905259,0.00390668731795151,0,0.451957842499613,static_reference,static_reference
63171,0.5763015,0.0146178974998839,0.561683602500116,Nausicaa,Nausicaa,0.0144867588186071,-0.136844128247285,1.23006121580938,-0.0015188615916015,0.0495977925271867,0.00188383311992505,0.998766340646636,-0.00323677181776158,0.0992302562705232,0.00393304041763075,0,0.466140502500116,static_reference,static_reference
63174,0.5918388,0.0147522900001853,0.577086509999815,Nausicaa,Nausicaa,0.0144859091611456,-0.136822809519876,1.23003995567387,-0.00164538140479528,0.0497413690510649,0.00194877284219142,0.99875887540956,-0.00349786140966995,0.0995170368540314,0.00407657644675567,0,0.481543409999815,static_reference,static_reference
63177,0.6073918,0.0147568475002808,0.592634952499719,Nausicaa,Nausicaa,0.0144892348113504,-0.136872865194775,1.23006850672688,-0.00159332970378459,0.0496142003686755,0.00189890385560911,0.998765381151339,-0.00338783336490637,0.0992627676496975,0.00397077898604863,0,0.497091852499719,static_reference,static_reference
63178,0.613378,0.0143583474999795,0.59901965250002,Nausicaa,Nausicaa,0.0145090332328643,-0.136863638289731,1.23014642331952,-0.00112536265828142,0.0496300300376594,0.00180621599615292,0.998765403516323,-0.00243924947699442,0.0992965422965529,0.00373809764127237,0,0.50347655250002,static_reference,static_reference
63180,0.6187493,0.0141813800000853,0.604567919999915,Nausicaa,Nausicaa,0.014479559308923,-0.136854549676756,1.23007081451975,-0.00153148064441465,0.0496070298896867,0.00183755061515241,0.998765948839014,-0.00325752873689525,0.0992488550581642,0.00384142391208971,0,0.509024819999915,static_reference,static_reference
63183,0.6379762,0.0146735000000594,0.623302699999941,Nausicaa,Nausicaa,0.0144889548878464,-0.136863997429062,1.2300779345687,-0.00165266208838965,0.0495834416103223,0.00188172990536375,0.998766844723362,-0.00350509301823794,0.099200998785527,0.00394209926760845,0,0.527759599999941,static_reference,static_reference
63187,0.6537475,0.014317365000366,0.639430134999634,Nausicaa,Nausicaa,0.0144877642078576,-0.136804968327861,1.23003323612819,-0.00161635590294325,0.0497287277637011,0.00201167792096707,0.998759427580306,-0.00344582487472373,0.0994916246490789,0.00419990492279302,0,0.543887034999634,static_reference,static_reference
63190,0.6698747,0.0144086925001125,0.655466007499888,Nausicaa,Nausicaa,0.0144743114153221,-0.136880162495394,1.23005913350222,-0.00158284862876869,0.0496172926942078,0.00187880278197604,0.998765282214006,-0.00336480240501,0.0992690693080018,0.00392939428669332,0,0.559922907499888,static_reference,static_reference
63193,0.6855628,0.0144848575001217,0.671077942499878,Nausicaa,Nausicaa,0.014565348187042,-0.136800198404648,1.23009287211737,-0.00175408535231702,0.0495858164008317,0.00205757521674031,0.998766207067834,-0.00372622494592813,0.0992046988661876,0.00430520957924064,0,0.575534842499878,static_reference,static_reference
63196,0.7014984,0.014759399999964,0.686739000000036,Nausicaa,Nausicaa,0.0144502645501369,-0.136853477574858,1.23009537480289,-0.00148846994970104,0.0496490239036945,0.00187378296183008,0.998763859888828,-0.00317497923749986,0.099332996641311,0.00391001979401608,0,0.591195900000036,static_reference,static_reference
63199,0.7165462,0.0150102800001736,0.701535919999826,Nausicaa,Nausicaa,0.0145036125690852,-0.136834310509934,1.23011356130467,-0.00107162679356055,0.0497257313931479,0.00189791433043692,0.998760532447406,-0.00234092514135625,0.099488167591033,0.00391707810456327,0,0.605992819999826,static_reference,static_reference
63202,0.7315696,0.0148954774998955,0.716674122500105,Nausicaa,Nausicaa,0.0144888231702973,-0.136831472385519,1.23007883062442,-0.00156250197511427,0.0495738921673687,0.00188880090072449,0.998767450527956,-0.00332476840372957,0.0991822083693261,0.00394727350160965,0,0.621131022500105,static_reference,static_reference
63205,0.7469597,0.0141608249997549,0.732798875000245,Nausicaa,Nausicaa,0.0144825457152769,-0.136826562242947,1.23002214442461,-0.00162215995327679,0.0497247404142909,0.00197004552906054,0.998759699681776,-0.0034532973950087,0.0994837597302309,0.00411689439218608,0,0.637255775000245,static_reference,static_reference
63208,0.7621718,0.0136058275003128,0.748565972499687,Nausicaa,Nausicaa,0.0145543505174358,-0.136785614342512,1.23004883879585,-0.00166104028770698,0.0496914223895922,0.00210634752697037,0.99876101585222,-0.00354481012177846,0.0994163982974755,0.00439426632264003,0,0.653022872499687,static_reference,static_reference
63211,0.7776131,0.0138228325003708,0.763790267499629,Nausicaa,Nausicaa,0.0144823381150401,-0.136854681556254,1.23002696688601,-0.0016770065114078,0.0497318776898661,0.0019585177215044,0.998759276401944,-0.0035622790725739,0.0994978668009293,0.00409926253158255,0,0.668247167499629,static_reference,static_reference
63215,0.7936128,0.0130149800001481,0.780597819999852,Nausicaa,Nausicaa,0.014475954246772,-0.136851936296085,1.23008460478791,-0.00150571849395485,0.0495528895646042,0.00192066636991819,0.998768519221702,-0.00321386437651994,0.0991402733921248,0.00400550680758156,0,0.685054719999852,static_reference,static_reference
63218,0.8087218,0.0133415225001133,0.795380277499887,Nausicaa,Nausicaa,0.0144852929124253,-0.136861076082211,1.23007556058104,-0.0015180415370443,0.0495835806905508,0.00183613772007572,0.998767136360658,-0.00323031191773541,0.0992019552870839,0.00383716259870621,0,0.699837177499887,static_reference,static_reference
63221,0.8240814,0.0137564975003429,0.810324902499657,Nausicaa,Nausicaa,0.0144918810528811,-0.136849662991992,1.23007563235038,-0.00142276734819543,0.0495710394828119,0.00183761289360145,0.998767896438667,-0.00303915260485343,0.0991772031629366,0.00383058657632479,0,0.714781802499657,static_reference,static_reference
63224,0.8394059,0.013645162499843,0.825760737500157,Nausicaa,Nausicaa,0.0144903985294332,-0.136847083318511,1.23015253340033,-0.00119396539653596,0.0496087920726646,0.00184170257666422,0.998766314173312,-0.00258041675272297,0.0992536654844251,0.00381611396424099,0,0.730217637500157,static_reference,static_reference
63227,0.8553968,0.0139992350004034,0.841397564999597,Nausicaa,Nausicaa,0.0144707974818045,-0.136865615212706,1.23007094333112,-0.00167520187119178,0.0495910846048281,0.00190205914215404,0.998766389200912,-0.00355239872385063,0.0992161422686728,0.00398518481655197,0,0.745854464999597,static_reference,static_reference
63230,0.8704728,0.0141245425004713,0.856348257499529,Nausicaa,Nausicaa,0.0144340818592998,-0.136838009569619,1.23009597830717,-0.00160580735321229,0.0496477332539511,0.0019144704659197,0.998763665122197,-0.00341457989612879,0.0993298130983199,0.0040034004760413,0,0.760805157499529,static_reference,static_reference
63233,0.8858854,0.0141455075000929,0.871739892499907,Nausicaa,Nausicaa,0.014479258781623,-0.136843232953342,1.23007014987327,-0.00152370547129983,0.0495775988742572,0.00186352020960061,0.998767373968497,-0.00324438507346347,0.0991898662907794,0.00389267306110545,0,0.776196792499907,static_reference,static_reference
63236,0.9018244,0.0144923300005148,0.887332069999485,Nausicaa,Nausicaa,0.0144828133729848,-0.136851129237036,1.23006841142394,-0.00148869656910314,0.0495766651664289,0.00187492064139287,0.998767451775482,-0.00317523993855153,0.0991880967300593,0.0039120668040325,0,0.791788969999485,static_reference,static_reference
63239,0.9168154,0.0146021550001366,0.902213244999863,Nausicaa,Nausicaa,0.0144846196462167,-0.136834188964559,1.23014943350545,-0.00111755879500938,0.0495914025672293,0.00184145026239288,0.998767266641576,-0.00242694099622387,0.0992191359673237,0.00380794040720178,0,0.806670144999863,static_reference,static_reference
63243,0.9330188,0.013605465000187,0.919413334999813,Nausicaa,Nausicaa,0.0144776117448662,-0.136835941785137,1.23008353829037,-0.00150344516128091,0.0495578389020365,0.00188854289315094,0.998768338335646,-0.00320612296621778,0.0991502964948613,0.0039408136052758,0,0.823870234999813,static_reference,static_reference
63246,0.9484726,0.0138462900001419,0.934626309999858,Nausicaa,Nausicaa,0.0144850927129645,-0.13686037851701,1.23007155685747,-0.00150975212735868,0.0496155238570294,0.00183180147321983,0.998765570564119,-0.00321337283341097,0.0992659659255548,0.00382774739137457,0,0.839083209999858,static_reference,static_reference
63249,0.964391,0.0136061800000395,0.950784819999961,Nausicaa,Nausicaa,0.01446999263875,-0.1368400911645,1.23014273449062,-0.00118087520091799,0.0496126195989078,0.00179354274199769,0.998766227259776,-0.00254935287604388,0.0992615030031653,0.00371814309566703,0,0.855241719999961,static_reference,static_reference
63252,0.9805458,0.013528052499956,0.967017747500044,Nausicaa,Nausicaa,0.0144415844608467,-0.136833020391895,1.23002586709847,-0.00159098662296533,0.0497595772087674,0.00196768603025784,0.998758019466806,-0.00339063853023354,0.0995536558622083,0.00410917561970067,0,0.871474647500044,static_reference,static_reference
63255,0.9958466,0.0134832175002151,0.982363382499785,Nausicaa,Nausicaa,0.0145510770711698,-0.136818062934667,1.23004315212399,-0.00167382252089605,0.0496977050854079,0.00210455005589583,0.998760685698268,-0.00357032017917869,0.0994289293575681,0.00439195986379431,0,0.886820282499785,static_reference,static_reference
63258,1.0114935,0.0143299350001892,0.997163564999811,Nausicaa,Nausicaa,0.0144899826754534,-0.136880987456834,1.23005648912089,-0.00156270460479139,0.0495997416423205,0.00183038442953898,0.998766275600139,-0.00331946323715933,0.0992341643279105,0.00383012423632957,0,0.901620464999811,static_reference,static_reference
63261,1.0270745,0.0141545375001576,1.01291996249984,Nausicaa,Nausicaa,0.0145495819474286,-0.136789194011747,1.23004346620637,-0.00167072999247971,0.0496618884387946,0.00210017455306685,0.998762481656591,-0.00356350438442889,0.0993572370268907,0.00438272329772195,0,0.917376862499842,static_reference,static_reference
63264,1.0427159,0.0148716374998727,1.02784426250013,Nausicaa,Nausicaa,0.0144866876036958,-0.136832652693824,1.23002024418863,-0.00152182780190702,0.0496677182079232,0.00201415487664318,0.998762606923333,-0.00325603449832353,0.0993698440190781,0.00419520427765406,0,0.932301162500127,static_reference,static_reference
63267,1.0584911,0.0143721224998876,1.04411897750011,Nausicaa,Nausicaa,0.0144724054029554,-0.136838941850461,1.23007574627083,-0.00151585294475698,0.0495806014478475,0.00185110464923238,0.998767259956742,-0.0032273974387315,0.0991959495400507,0.00386697845070198,0,0.948575877500112,static_reference,static_reference
63270,1.0735151,0.0145049725003476,1.05901012749965,Nausicaa,Nausicaa,0.0144551434197473,-0.136845443563596,1.23007505490833,-0.00150330480264447,0.0495624197331042,0.00186218187098032,0.998768160737791,-0.00320323506823335,0.0991595545298512,0.00388789897292565,0,0.963467027499652,static_reference,static_reference
63273,1.0892341,0.014786705000106,1.07444739499989,Nausicaa,Nausicaa,0.0145346144467636,-0.136806152131195,1.23004517364282,-0.00168603421511364,0.049684531868381,0.00208163616316482,0.99876136858237,-0.00359248343261509,0.0994025791909312,0.00434712786225496,0,0.978904294999894,static_reference,static_reference
63277,1.1044697,0.0149144875004913,1.08955521249951,Nausicaa,Nausicaa,0.0145398898709626,-0.136821814853609,1.23006457617192,-0.00165083423147242,0.0495691443913223,0.00205178852626072,0.998767222547124,-0.00351830342198078,0.0991717788534213,0.00428323782258458,0,0.994012112499509,static_reference,static_reference
63280,1.1205546,0.0149863250000771,1.10556827499992,Nausicaa,Nausicaa,0.0144762230077708,-0.136847977347761,1.230025867983,-0.00158056772835433,0.0496787417228923,0.00193928446131783,0.998762115622266,-0.00336652594511496,0.0993919239538311,0.00405081198080891,0,1.01002517499992,static_reference,static_reference
63283,1.1361659,0.0147209999998867,1.12144490000011,Nausicaa,Nausicaa,0.0144758714493746,-0.136808958736312,1.23003387791618,-0.00158934123456193,0.0496919379377329,0.00197656885973405,0.998761372137497,-0.00338792006173556,0.0994181869286343,0.00412658453795828,0,1.02590180000011,static_reference,static_reference
63286,1.1510471,0.0148561125004422,1.13619098749956,Nausicaa,Nausicaa,0.0144903483750558,-0.136846682797446,1.23007602231707,-0.00141852802058764,0.0495218370632032,0.00187534082799665,0.998770273150397,-0.00303419301319761,0.0990785793522803,0.00390573020029053,0,1.04064788749956,static_reference,static_reference
63289,1.1672397,0.0143819699999205,1.15285773000008,Nausicaa,Nausicaa,0.0144931844805887,-0.136887010364342,1.23006677327768,-0.00155788339785596,0.0495717163244346,0.00184764398845006,0.998767642723602,-0.00331138736367361,0.0991780061334315,0.00386418657075157,0,1.05731463000008,static_reference,static_reference
63293,1.183279,0.0138144275001596,1.16946457249984,Nausicaa,Nausicaa,0.0144673011803573,-0.136853875393428,1.23004392955637,-0.00171021823521872,0.0495940149614936,0.0019174567943687,0.998766154909661,-0.0036242384638093,0.099221814537355,0.00401959601821931,0,1.07392147249984,static_reference,static_reference
63296,1.1988627,0.0137596250000372,1.18510307499996,Nausicaa,Nausicaa,0.014503353525182,-0.136870801714613,1.23011872893334,-0.00107325627888228,0.0495528644921924,0.00186781245728074,0.998769179048995,-0.00234047665672696,0.0991420722176356,0.00385633913648103,0,1.08955997499996,static_reference,static_reference
63299,1.2143092,0.0139500399999966,1.20035916,Nausicaa,Nausicaa,0.0144705570628569,-0.136851631976926,1.23007991107479,-0.00157538576549123,0.0495416678768839,0.00186531511062132,0.998769073361408,-0.00334815423981774,0.099117708568778,0.00390129049290123,0,1.10481606,static_reference,static_reference
63302,1.2293038,0.0146216925000452,1.21468210749995,Nausicaa,Nausicaa,0.0144776614881903,-0.136848446059734,1.23005530374489,-0.00152461386179769,0.0495553783990146,0.00193030963644978,0.998768348481774,-0.00325276615957599,0.0991451499679511,0.00402675561339902,0,1.11913900749995,static_reference,static_reference
63305,1.2448145,0.0150688950002465,1.22974560499975,Nausicaa,Nausicaa,0.0144870918906867,-0.136867243409373,1.23000665622119,-0.00155983726293793,0.0496646398037642,0.00200678974106031,0.998762716192295,-0.00333158675589462,0.0993635444712351,0.00418420176730219,0,1.13420250499975,static_reference,static_reference
63308,1.261148,0.0146277075003099,1.24652029249969,Nausicaa,Nausicaa,0.0145559920520637,-0.13686725869512,1.23012376685711,-0.00161916675933057,0.0494682272214258,0.00203249125262456,0.998772317284517,-0.00345234631549126,0.0989698999122972,0.00424095246899254,0,1.15097719249969,static_reference,static_reference
63311,1.2758263,0.0146572849998795,1.26116901500012,Nausicaa,Nausicaa,0.0145187795547623,-0.136867284552315,1.23010756162642,-0.00107417325875746,0.0496439091393187,0.00188634109486077,0.998764621997821,-0.00234454064903258,0.0993243383738439,0.00389387499632039,0,1.16562591500012,static_reference,static_reference
63314,1.2916554,0.0148637249997772,1.27679167500022,Nausicaa,Nausicaa,0.0145415353483725,-0.136771261108566,1.23011404782547,-0.00126946415724342,0.0496914913943048,0.00202387132757834,0.998761757421965,-0.0027505081913246,0.0994184791019976,0.00418959389398341,0,1.18124857500022,static_reference,static_reference
63317,1.307539,0.0135036475001964,1.2940353524998,Nausicaa,Nausicaa,0.0145501286030612,-0.136759863772581,1.23011103185307,-0.00114289519379171,0.0496330799094509,0.0020562531260887,0.998764748573136,-0.00249939881486715,0.0993019613229378,0.004241786439889,0,1.1984922524998,static_reference,static_reference
63320,1.3225627,0.0139118199997479,1.30865088000025,Nausicaa,Nausicaa,0.0145411275460758,-0.136834097028173,1.23002575533696,-0.00165870901299164,0.0496514750107211,0.00209974531382581,0.998763020332294,-0.00353928067891853,0.0993364388000027,0.00438062020021952,0,1.21310778000025,static_reference,static_reference
63324,1.338354,0.0138398625003526,1.32451413749965,Nausicaa,Nausicaa,0.0144906082611332,-0.136864080352936,1.22999941453092,-0.00165902421831646,0.0496808935288933,0.00199272811695701,0.998761776146577,-0.00352936813342921,0.0993957256432481,0.00416593872908259,0,1.22897103749965,static_reference,static_reference
63326,1.3530196,0.0144028074997532,1.33861679250025,Nausicaa,Nausicaa,0.0144945938465493,-0.136810745412637,1.23011652357728,-0.00115898810071052,0.049670030612672,0.00189797963717035,0.998763206410216,-0.00251607109095716,0.0993762853590513,0.0039257772848906,0,1.24307369250025,static_reference,static_reference
63330,1.3690427,0.0146475449998456,1.35439515500015,Nausicaa,Nausicaa,0.0144916819888148,-0.136858437603897,1.23004803987379,-0.00163627362591313,0.0496748993681931,0.00193131072228523,0.998762232475916,-0.00347753892272743,0.0993840314530092,0.00404035204641984,0,1.25885205500015,static_reference,static_reference
63333,1.3851642,0.0142470175001784,1.37091718249982,Nausicaa,Nausicaa,0.0144843488528131,-0.136834317858191,1.23003983272644,-0.00163530849629058,0.0496873383718154,0.00195152752173617,0.998761576008999,-0.00347767523720091,0.0994088736525782,0.00408088825315199,0,1.27537408249982,static_reference,static_reference
63336,1.4008238,0.014458000000013,1.38636579999999,Nausicaa,Nausicaa,0.0144922206774821,-0.136845061670423,1.2301369169029,-0.00103943364874882,0.0495236742548071,0.00185796091342524,0.998770681011031,-0.00227148087150887,0.0990837730801275,0.00383311686471835,0,1.29082269999999,static_reference,static_reference
63339,1.4161481,0.0147202500001923,1.40142784999981,Nausicaa,Nausicaa,0.0145482200257099,-0.136776758741332,1.23009199056736,-0.00127948240844481,0.0496594612707994,0.0020382780183172,0.998763308423863,-0.00277191317463352,0.0993542578870661,0.00421941221665506,0,1.30588474999981,static_reference,static_reference
63342,1.431874,0.014558419999993,1.41731558000001,Nausicaa,Nausicaa,0.0144923978790644,-0.136889655899723,1.23004895789338,-0.00149135925235398,0.0495252790010738,0.00187447944873459,0.998769998004667,-0.00318032256065563,0.099085189331156,0.00391126199676064,0,1.32177248000001,static_reference,static_reference
63345,1.447144,0.0144731074999509,1.43267089250005,Nausicaa,Nausicaa,0.0144774979090968,-0.136840854716937,1.23004106383291,-0.00161762024446849,0.0496266422798472,0.00195416630816635,0.998764617372288,-0.00344216037013289,0.099287395163406,0.00408418413566738,0,1.33712779250005,static_reference,static_reference
63348,1.4627667,0.014523357500147,1.44824334249985,Nausicaa,Nausicaa,0.0144751470350466,-0.136840316546056,1.23008796985961,-0.00170588668416786,0.0496649470698475,0.00194329227831206,0.998762587704551,-0.00361843447108834,0.0993637770857419,0.00407131382080444,0,1.35270024249985,static_reference,static_reference
63352,1.478881,0.0144995300001652,1.46438146999983,Nausicaa,Nausicaa,0.0144719846004319,-0.13686462866136,1.23007404539707,-0.0016152287533516,0.0496262874953907,0.00194544995677316,0.998764655887444,-0.00343648871979403,0.0992867244953747,0.00406644683720283,0,1.36883836999983,static_reference,static_reference
63355,1.4940557,0.0146307424998951,1.47942495750011,Nausicaa,Nausicaa,0.014465668742856,-0.13685815951422,1.23005991736379,-0.00151928620538614,0.0495427097271227,0.00188160325412333,0.998769078041323,-0.00323716642609187,0.0991199610176807,0.00392840549931045,0,1.38388185750011,static_reference,static_reference
63358,1.5098987,0.0143465900000619,1.49555210999994,Nausicaa,Nausicaa,0.0144791546513918,-0.136838933887697,1.23006142054933,-0.00156028709683933,0.0495595377631662,0.0019418773904594,0.998768064584104,-0.00332554700225684,0.0991532965017283,0.00405354515076059,0,1.40000900999994,static_reference,static_reference
63361,1.5246608,0.0142979924998763,1.51036280750012,Nausicaa,Nausicaa,0.0145564942466473,-0.136819604427084,1.23005766609045,-0.00154869437150056,0.0495436927849229,0.0020749653249608,0.99876860111333,-0.00331545742095757,0.0991211738220511,0.00431949202460175,0,1.41481970750012,static_reference,static_reference
63364,1.5402489,0.0138281075003596,1.52642079249964,Nausicaa,Nausicaa,0.0145400971866983,-0.136797695742438,1.23003682219146,-0.00165511775201075,0.0496123884006447,0.00208490150726044,0.998764999731226,-0.00353040539893199,0.099258237688596,0.00435030810961334,0,1.43087769249964,static_reference,static_reference
63367,1.5551928,0.0139347975002138,1.54125800249979,Nausicaa,Nausicaa,0.0144706062671797,-0.136833144128521,1.23001852218535,-0.00168368035851417,0.0497077500222946,0.00195082641840159,0.998760481338973,-0.00357479997304832,0.0994495520437532,0.00408439300813613,0,1.44571490249979,static_reference,static_reference
63370,1.5711773,0.0138920974999762,1.55728520250002,Nausicaa,Nausicaa,0.0144957230404665,-0.136847353695422,1.23006146296408,-0.00155030240415547,0.0495460917594243,0.0019046478498884,0.998768818931784,-0.0033017373588379,0.0991265351784771,0.00397776596173967,0,1.46174210250002,static_reference,static_reference
63373,1.5869122,0.0140439825001003,1.5728682174999,Nausicaa,Nausicaa,0.0144623640171777,-0.136838788879124,1.23007778654478,-0.00159569711935896,0.0495536434415099,0.00186926654782929,0.99876843963701,-0.00338937176105103,0.0991415962970432,0.00391129040929118,0,1.4773251174999,static_reference,static_reference
63376,1.6032188,0.0147298050005309,1.58848899499947,Nausicaa,Nausicaa,0.0144937149262301,-0.136916525590675,1.2300387661233,-0.00158470533486572,0.0495501294916145,0.00187424838350325,0.998768622138963,-0.00336778796212832,0.0991345860206349,0.00392018300576283,0,1.49294589499947,static_reference,static_reference
63379,1.6184444,0.0143683225000543,1.60407607749995,Nausicaa,Nausicaa,0.0144989172418899,-0.136841687621819,1.23010514899282,-0.00113344640670639,0.0496701927346236,0.00189136670032923,0.998763240205082,-0.00246413836691894,0.0993767266825703,0.00390995292754253,0,1.50853297749995,static_reference,static_reference
63382,1.6334439,0.01478791250039,1.61865598749961,Nausicaa,Nausicaa,0.014530454783805,-0.136788630678976,1.23006422857215,-0.00159385448554613,0.0495200599372988,0.00206890086131316,0.998769714669458,-0.00340539724926341,0.0990736755038001,0.0043117236386956,0,1.52311288749961,static_reference,static_reference
63385,1.648922,0.0146641750001003,1.6342578249999,Nausicaa,Nausicaa,0.0144694104697192,-0.136844525109351,1.23000820644127,-0.00162023449334946,0.0496631814440422,0.00197041763765311,0.998762764976436,-0.00344919307841288,0.099360496626718,0.00411720998981592,0,1.5387147249999,static_reference,static_reference
63389,1.6649143,0.0150066099999401,1.64990769000006,Nausicaa,Nausicaa,0.0144888033931455,-0.136802599201626,1.23009806792414,-0.00112937981867228,0.0496888338196098,0.00190530817626934,0.998762291086135,-0.00245744514644587,0.099414036462825,0.00393758703862394,0,1.55436459000006,static_reference,static_reference
63392,1.6810041,0.0146420274999072,1.66636207250009,Nausicaa,Nausicaa,0.0144785711425063,-0.13680904103245,1.23001763986689,-0.00162407025991368,0.0496358910711022,0.00201445424042962,0.998764027529767,-0.00346116356277835,0.0993056803773801,0.00420588693703091,0,1.57081897250009,static_reference,static_reference
63395,1.6965939,0.0144419924999049,1.6821519075001,Nausicaa,Nausicaa,0.0144739903881347,-0.136839199003909,1.23002155402154,-0.00169159877134413,0.0496518404409793,0.00200710809414672,0.99876313746129,-0.00359606215165989,0.099337360220048,0.00419794083505917,0,1.5866088075001,static_reference,static_reference
63398,1.7121958,0.0141715650002218,1.69802423499978,Nausicaa,Nausicaa,0.0144830214219113,-0.136895149577687,1.23004830843736,-0.00153154538090319,0.0495529372325898,0.00191517838810364,0.998768488125307,-0.00326516290232495,0.0991402831774256,0.00399706245296934,0,1.60248113499978,static_reference,static_reference
63401,1.7270146,0.0146287300002235,1.71238586999978,Nausicaa,Nausicaa,0.0144851842903742,-0.136863329489709,1.23006923841116,-0.00147634668280891,0.0495194752692162,0.00193348994731111,0.998770195583627,-0.0031560345960222,0.099073440132174,0.00402820428009812,0,1.61684276999978,static_reference,static_reference
63404,1.7424686,0.0145350374998954,1.7279335625001,Nausicaa,Nausicaa,0.0144792174619688,-0.1368541606632,1.23003838539278,-0.00147764220743528,0.0495409053250696,0.00191584658900099,0.998769164924972,-0.00315697216747343,0.0991164033186391,0.00399299267033541,0,1.6323904625001,static_reference,static_reference
63408,1.7581942,0.0139464149996772,1.74424778500032,Nausicaa,Nausicaa,0.0144633095690484,-0.136830416992659,1.23003069424122,-0.00162001793415918,0.0496339280510217,0.0019897478589008,0.998764181191725,-0.00345055533102066,0.0993018519584337,0.00415587882627356,0,1.64870468500032,static_reference,static_reference
63410,1.77331,0.0136505900002558,1.75965940999974,Nausicaa,Nausicaa,0.0144718171376561,-0.136862206779241,1.23006802022726,-0.00152852791758594,0.0495314146000656,0.00188218999246053,0.99876962305176,-0.00325572829020611,0.0990973048090242,0.00393046207135215,0,1.66411630999974,static_reference,static_reference
63414,1.7885235,0.0139042925000849,1.77461920749991,Nausicaa,Nausicaa,0.0145525503132087,-0.136758953398459,1.23002729711626,-0.00172834997446682,0.0495988802871075,0.0021270249682381,0.998765457775456,-0.0036815476389107,0.0992307138551116,0.00444211333173065,0,1.67907610749991,static_reference,static_reference
63417,1.8039943,0.0145273400001804,1.78946695999982,Nausicaa,Nausicaa,0.0144989342744946,-0.136852322957283,1.2300041630407,-0.00167019904611443,0.0496632307301783,0.00197813482837096,0.998762664966602,-0.00355026399945401,0.0993603617978477,0.00413768896609312,0,1.69392385999982,static_reference,static_reference
63420,1.8192699,0.0148406624999111,1.80442923750009,Nausicaa,Nausicaa,0.0145521636969375,-0.136826612940034,1.23004700001957,-0.00156761036141722,0.0496010186970521,0.00204060084660993,0.998765797116699,-0.00335027206642359,0.0992359998162308,0.00425260977106114,0,1.70888613750009,static_reference,static_reference
63423,1.8350012,0.0146397475000987,1.8203614524999,Nausicaa,Nausicaa,0.0144571123027674,-0.136844446906883,1.2300178419852,-0.0016614908093392,0.0496755693801713,0.00194635141775155,0.998762128322457,-0.00352966536904332,0.0993852179410044,0.00407306551962355,0,1.7248183524999,static_reference,static_reference
63426,1.8501045,0.0142486350002532,1.83585586499975,Nausicaa,Nausicaa,0.0145380156596747,-0.136782859306316,1.23001638628138,-0.00166244815836447,0.0496174090997619,0.00212196140213041,0.998764660097741,-0.00354883987224539,0.0992681278804983,0.00442545390035734,0,1.74031276499975,static_reference,static_reference
63429,1.8660149,0.014047012499732,1.85196788750027,Nausicaa,Nausicaa,0.0145361481837042,-0.136800940173982,1.23003688220194,-0.00163290602681177,0.0496245334495324,0.00208153521270451,0.998764439950173,-0.00348553885249497,0.0992826661101748,0.00434138371521603,0,1.75642478750027,static_reference,static_reference
63432,1.8813791,0.014469492500057,1.86690960749994,Nausicaa,Nausicaa,0.0145852928231589,-0.136784032335969,1.23001738337117,-0.00175108282855222,0.0495856300421295,0.00201374987627141,0.998766310912462,-0.0037158294336318,0.0992045017774466,0.00421693413323025,0,1.77136650749994,static_reference,static_reference
63435,1.8970443,0.0135577049999272,1.88348659500007,Nausicaa,Nausicaa,0.0144824085726097,-0.136862709288496,1.23006364439608,-0.00149781170450272,0.0495067187066928,0.00191961297732929,0.998770822786194,-0.00319768675656267,0.0990478536123485,0.00400243785227308,0,1.78794349500007,static_reference,static_reference
63438,1.9126777,0.0141727174997468,1.89850498250025,Nausicaa,Nausicaa,0.0145841580430667,-0.136780050041756,1.23000757443257,-0.00172499682824992,0.0495826173515665,0.00198458235987771,0.998766564255816,-0.00366054382675801,0.0991986860490224,0.0041557710485211,0,1.80296188250025,static_reference,static_reference
63442,1.9288332,0.0137045400001882,1.91512865999981,Nausicaa,Nausicaa,0.0145471194566777,-0.136813635054946,1.23002631948566,-0.00160943810776609,0.0496039524305575,0.0020704850984403,0.998765523385595,-0.00343723038266012,0.0992415935058079,0.00431678090675903,0,1.81958555999981,static_reference,static_reference
63445,1.9447044,0.0137177875000523,1.93098661249995,Nausicaa,Nausicaa,0.0144544556349461,-0.136825796204549,1.23003099209846,-0.00152751553757691,0.0496177451441616,0.00195939297220252,0.998765191044558,-0.00326176413746487,0.0992699299950746,0.00408565662042692,0,1.83544351249995,static_reference,static_reference
63448,1.9594587,0.0140644650001994,1.9453942349998,Nausicaa,Nausicaa,0.0145476609910223,-0.136782387115869,1.23009984071565,-0.0012825289503772,0.0496416304737822,0.00203881240687834,0.998764189830295,-0.00277800155942343,0.0993185380222532,0.00422073167532454,0,1.8498511349998,static_reference,static_reference
63451,1.9756344,0.0140838200001807,1.96155057999982,Nausicaa,Nausicaa,0.014525015614314,-0.136851871098992,1.23000507245157,-0.00170593389848842,0.0496419883601267,0.00206168471480251,0.998763491642202,-0.00363023870265266,0.0993173733280951,0.00430888987234964,0,1.86600747999982,static_reference,static_reference
63454,1.9909276,0.0139477924999319,1.97697980750007,Nausicaa,Nausicaa,0.0145446312304252,-0.136814921899473,1.23000554619554,-0.00165989060629546,0.0496533625014023,0.0020992565300599,0.998762925562168,-0.00354161285273499,0.0993402149775824,0.00437976445920195,0,1.88143670750007,static_reference,static_reference
63457,2.0063139,0.0144219274998715,1.99189197250013,Nausicaa,Nausicaa,0.0145581519701854,-0.136792647783089,1.23011217382223,-0.00125538761574627,0.0495739473449285,0.00204714987895834,0.998767569018913,-0.00272404244041967,0.0991830972822447,0.00423454660401777,0,1.89634887250013,static_reference,static_reference
63460,2.0224592,0.0140913799999271,2.00836782000007,Nausicaa,Nausicaa,0.014477455587977,-0.136876155933592,1.23006175362739,-0.00154641153625477,0.0494854801610446,0.00185801870020767,0.998771917722511,-0.00328902707810261,0.0990053326989057,0.0038835512005246,0,1.91282472000007,static_reference,static_reference
63463,2.0378738,0.0146023475001143,2.02327145249989,Nausicaa,Nausicaa,0.0145230917628338,-0.136843389098674,1.23006076894601,-0.00155204607277036,0.0494333000304702,0.001772660728576,0.998774648093867,-0.00329163673144109,0.0989011046936002,0.00371257353685814,0,1.92772835249989,static_reference,static_reference
63466,2.0528393,0.0146435225001932,2.03819577749981,Nausicaa,Nausicaa,0.0145491448555543,-0.136790917677125,1.23013584433576,-0.00119572329101844,0.0494752669025694,0.00198374030359519,0.9987726633149,-0.00259752168593236,0.0989859124756014,0.00410101497491235,0,1.94265267749981,static_reference,static_reference
63470,2.0689755,0.0144545175000863,2.05452098249991,Nausicaa,Nausicaa,0.014492045651843,-0.136841997458356,1.23002783379239,-0.00162150363997243,0.0496068949344884,0.0019894285709084,0.998765522470047,-0.00345338358441045,0.0992477141798906,0.00415528094401801,0,1.95897788249991,static_reference,static_reference
63473,2.0841199,0.0145127550000823,2.06960714499992,Nausicaa,Nausicaa,0.0144719477227028,-0.136859033930263,1.23001740232463,-0.00162872032448569,0.0496063444305014,0.00195746385407265,0.99876560122864,-0.003464681208788,0.0992466927274199,0.004091831754304,0,1.97406404499992,static_reference,static_reference
63476,2.0993717,0.0145773650002805,2.08479433499972,Nausicaa,Nausicaa,0.0144686146913807,-0.136881667408081,1.23002562345772,-0.00165200849953138,0.0494887319840859,0.00187900979248491,0.998771548251513,-0.00350310179456985,0.0990113595469089,0.00393620279760351,0,1.98925123499972,static_reference,static_reference
63479,2.114618,0.0146669050001538,2.09995109499985,Nausicaa,Nausicaa,0.0144495645470999,-0.136816742594535,1.23002420813721,-0.00166789492779074,0.0495599203109594,0.00197858377163282,0.998767799656927,-0.00354521676864903,0.099153495002998,0.00413794903896497,0,2.00440799499985,static_reference,static_reference
63482,2.1306982,0.0145802424998369,2.11611795750016,Nausicaa,Nausicaa,0.0144773525322918,-0.136820375478608,1.23004522013989,-0.00163360422170419,0.0495881498978224,0.00195929436006236,0.998766493176743,-0.00347458642459915,0.099210232588766,0.0040959222102166,0,2.02057485750016,static_reference,static_reference
63485,2.1461748,0.0151517125004548,2.13102308749955,Nausicaa,Nausicaa,0.014487032563407,-0.136843426853376,1.23011260216096,-0.00116652627826442,0.0496051939004079,0.00189224081724227,0.998766430843185,-0.00253035881555743,0.0992464371815752,0.00391481906978982,0,2.03547998749955,static_reference,static_reference
63488,2.162374,0.0147842899998079,2.14758971000019,Nausicaa,Nausicaa,0.0145636322250124,-0.1368052357794,1.23005417957551,-0.00171528650053088,0.0494029290796267,0.00192668465868028,0.998775598558956,-0.00363448681147528,0.0988391212970829,0.00403784969233761,0,2.05204661000019,static_reference,static_reference
63491,2.1783265,0.0150272550002282,2.16329924499977,Nausicaa,Nausicaa,0.0144677388955233,-0.136845251828901,1.23001545513063,-0.00154587708825819,0.0495900336629635,0.00193995288276924,0.998766577037972,-0.00329656289302842,0.0992144279856815,0.00404836008098459,0,2.06775614499977,static_reference,static_reference
63495,2.1938985,0.0138404175004991,2.1800580824995,Nausicaa,Nausicaa,0.0144756030086325,-0.136874230301728,1.23011753850068,-0.00117177899480076,0.0494930217031021,0.00179064596860735,0.998772176887051,-0.00253032742301353,0.0990220548565235,0.00371107233897379,0,2.0845149824995,static_reference,static_reference
63498,2.2091523,0.0137217125001361,2.19543058749986,Nausicaa,Nausicaa,0.0145341003155043,-0.136778424172879,1.2300331522252,-0.00166538649448155,0.0496093700983497,0.00210738507662849,0.99876508540017,-0.00355324640639717,0.0992520689719981,0.00439645381886392,0,2.09988748749986,static_reference,static_reference
63501,2.2243672,0.0136903250003018,2.2106768749997,Nausicaa,Nausicaa,0.0145376541762269,-0.136779359088569,1.23002618173713,-0.00159078059334186,0.0495690808974334,0.00208612334343306,0.998767252028962,-0.00340117171634208,0.0991717922069887,0.00434617895814036,0,2.1151337749997,static_reference,static_reference
63504,2.2396904,0.0137599925001094,2.22593040749989,Nausicaa,Nausicaa,0.0145135763046877,-0.136803206720561,1.23008660319154,-0.00126833320732933,0.049572794320283,0.00176496220407188,0.998768148422131,-0.00272190988297162,0.0991815065152603,0.00366936683966062,0,2.13038730749989,static_reference,static_reference
63507,2.2551931,0.0135677550000545,2.24162534499995,Nausicaa,Nausicaa,0.0144723244318657,-0.136884430364008,1.23005339831291,-0.00157527965428479,0.0494589440304154,0.00183332569298879,0.998773232654095,-0.00334440930325328,0.0989521659876967,0.00383675449018995,0,2.14608224499995,static_reference,static_reference
63510,2.2709408,0.0140621099999553,2.25687869000004,Nausicaa,Nausicaa,0.0145630593357107,-0.136744718451555,1.23009310579109,-0.00125731432592702,0.0494774364944262,0.00185855644908609,0.998772720996399,-0.00270871967214111,0.0989903441657777,0.00385585435736957,0,2.16133559000004,static_reference,static_reference
63513,2.2866546,0.0142699500001492,2.27238464999985,Nausicaa,Nausicaa,0.0144717809117113,-0.136822831432666,1.2300391225572,-0.00158152167616579,0.0495634566940339,0.00196256261532008,0.998767796285857,-0.00337025106237399,0.099160987994929,0.00409719862077408,0,2.17684154999985,static_reference,static_reference
63516,2.301527,0.0145378874999485,2.28698911250005,Nausicaa,Nausicaa,0.0144634816255297,-0.136823816842872,1.23001280787402,-0.00168321917474337,0.0495904384648328,0.00196429141653561,0.998766287349201,-0.00357469223066668,0.0992145938664792,0.0041109071051205,0,2.19144601250005,static_reference,static_reference
63519,2.3170541,0.0145416574997378,2.30251244250026,Nausicaa,Nausicaa,0.0145620944552207,-0.136752450036245,1.23001739056236,-0.0017832707315229,0.0494785408541537,0.00197895732669681,0.998771634393139,-0.00377648908385333,0.0989900567864948,0.00414984765325127,0,2.20696934250026,static_reference,static_reference
63522,2.3332587,0.0145436799998227,2.31871502000018,Nausicaa,Nausicaa,0.0145079369912637,-0.136811940409946,1.23001490257298,-0.00160743115232952,0.0495242148963026,0.0018442245691694,0.998769927030111,-0.00341030837563086,0.0990827066488277,0.00386207740369654,0,2.22317192000018,static_reference,static_reference
63525,2.3485332,0.0142926375001315,2.33424056249987,Nausicaa,Nausicaa,0.0145247173331167,-0.136845991978755,1.23005873481804,-0.00158316919972127,0.0493799603860969,0.00176499027185875,0.998777251391367,-0.00335313379808885,0.0987942053475829,0.00370006852938822,0,2.23869746249987,static_reference,static_reference
63529,2.3645287,0.0145206524998307,2.35000804750017,Nausicaa,Nausicaa,0.0144918058836082,-0.136849777702525,1.23007943726087,-0.00117291598260576,0.0495845968203041,0.00188990906325484,0.998767450545921,-0.00254286686074815,0.0992051732778527,0.00391071456163979,0,2.25446494750017,static_reference,static_reference
63532,2.3807597,0.0141584875003056,2.36660121249969,Nausicaa,Nausicaa,0.0145131280359166,-0.136808461879269,1.23006173299783,-0.00177010528728814,0.0495390635001581,0.00207809546032273,0.998768456367169,-0.00376020637156779,0.0991109321250481,0.00434780143949589,0,2.27105811249969,static_reference,static_reference
63535,2.3961909,0.0139782825001467,2.38221261749985,Nausicaa,Nausicaa,0.0144651612083835,-0.136815250119872,1.23002222025194,-0.00161090280212029,0.0495661369407305,0.00197851529759899,0.99876758484552,-0.00343083188256729,0.0991661797067222,0.0041321590892978,0,2.28666951749985,static_reference,static_reference
63538,2.4120323,0.0135595825003719,2.39847271749963,Nausicaa,Nausicaa,0.0145054357602377,-0.136835071877986,1.23001504791021,-0.00166087839539421,0.049462689434063,0.00181165783006379,0.998772948038147,-0.00351409964765535,0.0989594130178161,0.00380178197449035,0,2.30292961749963,static_reference,static_reference
63541,2.4262952,0.0137397400000442,2.41255545999996,Nausicaa,Nausicaa,0.0145143420846691,-0.136832060264835,1.2300121186282,-0.0017406096359503,0.0495035457213397,0.00185233015519076,0.998770713483383,-0.00367836788161773,0.0990407719841411,0.00389151919738547,0,2.31701235999996,static_reference,static_reference
63544,2.4417989,0.0135428599997776,2.42825604000022,Nausicaa,Nausicaa,0.0145720133789264,-0.136794141231305,1.23002402994272,-0.00178711876900318,0.0494627213120535,0.00195905915721027,0.998772450307942,-0.00378216357720205,0.0989584384332082,0.00411022047000661,0,2.33271294000022,static_reference,static_reference
63547,2.4576241,0.0138280400002136,2.44379605999979,Nausicaa,Nausicaa,0.0144933591340201,-0.136797104662837,1.23003023317349,-0.00163482450424883,0.0495021216569721,0.00184381732556562,0.998770978572149,-0.00346516348948978,0.0990383615211711,0.0038639008385682,0,2.34825295999979,static_reference,static_reference
63550,2.4725877,0.0145168025004123,2.45807089749959,Nausicaa,Nausicaa,0.0145802889648397,-0.136741111406162,1.23003472387653,-0.00176955433032164,0.0494173294085212,0.00187469086124121,0.998774890436167,-0.00373832188460765,0.0988679322579826,0.00393892732429041,0,2.36252779749959,static_reference,static_reference
63553,2.4883242,0.0140674124999781,2.47425678750002,Nausicaa,Nausicaa,0.0145245895292051,-0.136764504449845,1.23003377592144,-0.00170587278222538,0.049516217496587,0.00207900844299225,0.998769699143289,-0.003631249209923,0.0990654602629565,0.0043431459149827,0,2.37871368750002,static_reference,static_reference
63556,2.5034011,0.0144801974998691,2.48892090250013,Nausicaa,Nausicaa,0.0145574035096405,-0.136792375958828,1.22999596954192,-0.00175426894503213,0.04948159044489,0.00199137826885605,0.998771509986194,-0.00371952059371264,0.0989962376318008,0.00417191003989236,0,2.39337780250013,static_reference,static_reference
63560,2.5188351,0.0144470025003834,2.50438809749962,Nausicaa,Nausicaa,0.0145627177968342,-0.136801507974527,1.23000003649636,-0.00176501709188893,0.04950861980066,0.00192915628573334,0.998770273704681,-0.00373502881006499,0.0990505504261849,0.004048188205947,0,2.40884499749962,static_reference,static_reference
63563,2.5348463,0.0137592550001004,2.5210870449999,Nausicaa,Nausicaa,0.0145006815194318,-0.136842722211038,1.23006036669454,-0.0017661319401727,0.0494292568698327,0.00184267954103094,0.99877436584815,-0.00372832371064019,0.0988919493146627,0.003874378540185,0,2.4255439449999,static_reference,static_reference
63566,2.550457,0.0144562850003526,2.53600071499965,Nausicaa,Nausicaa,0.0145516787158091,-0.136767640652344,1.23011856132323,-0.00134456699586656,0.0495482257024576,0.00205498178654456,0.998768713226035,-0.00290372411777058,0.0991311896236508,0.00425906744104856,0,2.44045761499965,static_reference,static_reference
63569,2.5663323,0.0143924875004829,2.55193981249952,Nausicaa,Nausicaa,0.0145538261138614,-0.136787054091461,1.23002466766953,-0.00176738785248273,0.049490451297629,0.0019655954173456,0.998771098903643,-0.00374333132926584,0.099014022858562,0.0041214956575534,0,2.45639671249952,static_reference,static_reference
63572,2.5827468,0.0142411899998616,2.56850561000014,Nausicaa,Nausicaa,0.0146034392550155,-0.136764517952623,1.23009095080002,-0.00137734031005509,0.0494344862496948,0.0018211300657014,0.998774758385585,-0.00294575893217423,0.0989039850760097,0.00379251683170854,0,2.47296251000014,static_reference,static_reference
63575,2.5975482,0.0142178625003664,2.58333033749963,Nausicaa,Nausicaa,0.0144485364638205,-0.136840193771242,1.23003253481343,-0.00172208963900985,0.0495885581404676,0.00194512171652175,0.998766351961425,-0.00365080227816449,0.0992107386251003,0.00407629191339763,0,2.48778723749963,static_reference,static_reference
63578,2.6130081,0.014705590000065,2.59830250999994,Nausicaa,Nausicaa,0.0144411194017567,-0.136834267117012,1.23002888340431,-0.00165189150746605,0.0495890979895134,0.0019671569559198,0.998766400570496,-0.00351208432927802,0.0992120284429232,0.00411353190957523,0,2.50275940999994,static_reference,static_reference
63582,2.6289205,0.0141624800004128,2.61475801999959,Nausicaa,Nausicaa,0.0144983450893178,-0.13681252596795,1.23001868189847,-0.00178459685102523,0.0494605114853841,0.00184868667511583,0.998772774646596,-0.00376612018144928,0.0989544405526576,0.0038884017858567,0,2.51921491999959,static_reference,static_reference
63585,2.644521,0.0142183800003775,2.63030261999962,Nausicaa,Nausicaa,0.0144893590499249,-0.136811024429536,1.23000859128863,-0.00176931046921523,0.04943374824345,0.00183131719584947,0.998774158832914,-0.00373359454586229,0.098900973171274,0.00385190452262036,0,2.53475951999962,static_reference,static_reference
63588,2.6603571,0.0145913125001047,2.6457657874999,Nausicaa,Nausicaa,0.0144934184345023,-0.136788214867441,1.23000567039256,-0.00166831642933315,0.0495474108593716,0.00181428182722014,0.998768731578475,-0.00352964574311024,0.0991290256680849,0.00380812165516527,0,2.5502226874999,static_reference,static_reference
63591,2.6767558,0.0148608949997141,2.66189490500029,Nausicaa,Nausicaa,0.0145334580917373,-0.136818004433281,1.23002481709522,-0.00179028271402094,0.0494635685904229,0.00206980334443904,0.998772179320299,-0.00379952720217692,0.0989597013570408,0.00433284353745736,0,2.56635180500029,static_reference,static_reference
63594,2.6920572,0.0146488200002069,2.67740837999979,Nausicaa,Nausicaa,0.0145807718295729,-0.136811033791826,1.23006040586814,-0.00180616427932539,0.0493560494514889,0.0019066238289752,0.998777794576308,-0.00381471229420098,0.0987449567507775,0.00400640450968395,0,2.58186527999979,static_reference,static_reference
63597,2.707531,0.0147574950003677,2.69277350499963,Nausicaa,Nausicaa,0.0144932424328536,-0.136804355437425,1.23002756808432,-0.00172378319138171,0.0494354802942763,0.00184955748952706,0.998774119106355,-0.00364402422687223,0.0989045504455911,0.00388400351653654,0,2.59723040499963,static_reference,static_reference
63601,2.7236952,0.0142188900001451,2.70947630999985,Nausicaa,Nausicaa,0.014476745798498,-0.136801765990444,1.2300122454455,-0.00175848050650751,0.0495225689632436,0.00183661991183208,0.998769768133221,-0.00371275956673099,0.0990788538051853,0.0038618389836354,0,2.61393320999985,static_reference,static_reference
63604,2.7392516,0.0143352500000427,2.72491634999996,Nausicaa,Nausicaa,0.0145046682107599,-0.136804824168118,1.2300140939964,-0.00163988283174499,0.0494641052627332,0.00182400458178277,0.998772890141769,-0.00347318700026226,0.0989622851041384,0.00382448493947149,0,2.62937324999996,static_reference,static_reference
63607,2.7553332,0.0144569325002581,2.74087626749974,Nausicaa,Nausicaa,0.0145498527446492,-0.136762505333264,1.23002029793215,-0.00179845359165766,0.0494790597667143,0.00194372032305204,0.998771650659242,-0.00380346530125082,0.0989911670335102,0.00408062558174408,0,2.64533316749974,static_reference,static_reference
63610,2.7700565,0.0135664099998242,2.75649009000018,Nausicaa,Nausicaa,0.0145046123095346,-0.13681483467422,1.23005500264055,-0.0016197304105501,0.0492507911455135,0.00177693100819549,0.99878354940454,-0.00342718154283227,0.0985353765772162,0.0037271728511017,0,2.66094699000018,static_reference,static_reference
63613,2.7858207,0.0133461225003266,2.77247457749967,Nausicaa,Nausicaa,0.0144883690224835,-0.136811149768782,1.23002242097691,-0.00165794874238509,0.0495098721442405,0.00180994096058101,0.998770618250231,-0.0035082448486389,0.0990539110315877,0.0037982287194131,0,2.67693147749967,static_reference,static_reference
63616,2.8018764,0.0137125250001271,2.78816387499987,Nausicaa,Nausicaa,0.0144605061849846,-0.136816220054264,1.23001473246424,-0.0017106777937385,0.049513713089717,0.00194832883274786,0.998770078552774,-0.00362787924784146,0.0990608999475391,0.00408128897683409,0,2.69262077499987,static_reference,static_reference
63619,2.8172388,0.013957535000135,2.80328126499987,Nausicaa,Nausicaa,0.0144745776026261,-0.136797667363782,1.23014234396684,-0.00129369713960385,0.0493403438706104,0.00166017549882573,0.998779805879031,-0.00276151230916473,0.0987162344046003,0.00346081828925593,0,2.70773816499987,static_reference,static_reference
63623,2.8332323,0.0134220725000604,2.81981022749994,Nausicaa,Nausicaa,0.0144748205322753,-0.136815692834272,1.23005634084149,-0.0017151206894215,0.0494225385729182,0.00180433186179079,0.998774857226874,-0.00362208824624013,0.0988788332216781,0.00379230651335539,0,2.72426712749994,static_reference,static_reference
63626,2.8483784,0.0137773074997644,2.83460109250024,Nausicaa,Nausicaa,0.0144953263938557,-0.136826883390317,1.22999861618043,-0.00165054983188692,0.0494599241617818,0.0018215224193349,0.998773084160381,-0.00349433537441029,0.0989538805181868,0.00382054640683235,0,2.73905799250024,static_reference,static_reference
63629,2.8633319,0.0137622925004818,2.84956960749952,Nausicaa,Nausicaa,0.0144771992927621,-0.136837910640387,1.23002855311139,-0.00162541161881023,0.049359982737258,0.00170450210645828,0.998778276102267,-0.00343184750534034,0.0987542528491862,0.00358276364036533,0,2.75402650749952,static_reference,static_reference
63632,2.8792035,0.0147721425004542,2.86443135749955,Nausicaa,Nausicaa,0.0145374586231584,-0.136802764367558,1.23008854767954,-0.0018774948483446,0.0493343161509187,0.00187284771301734,0.99877880068835,-0.00395445207663401,0.0987012847277569,0.00394558445490013,0,2.76888825749955,static_reference,static_reference
63635,2.8949269,0.0145400999999404,2.88038680000006,Nausicaa,Nausicaa,0.0145775849649343,-0.136757406436668,1.23009326304946,-0.00129968894262583,0.0493845190909413,0.00186613123176985,0.998777251261278,-0.00279414659084873,0.0988040976136314,0.00387497638262952,0,2.78484370000006,static_reference,static_reference
63638,2.9103266,0.0145053600003067,2.89582123999969,Nausicaa,Nausicaa,0.0144834216188596,-0.136816074544464,1.23006452379036,-0.00162085843723328,0.0493426446752115,0.00173795863970289,0.998779082547361,-0.00342595695117366,0.0987194361637334,0.00364940466519574,0,2.80027813999969,static_reference,static_reference
63641,2.9264608,0.0143751775002171,2.91208562249978,Nausicaa,Nausicaa,0.0144749461458347,-0.136824146359346,1.23005629313209,-0.00171797353664819,0.0493377126042463,0.00177766438660058,0.998779093989876,-0.00362481662125426,0.0987090606924361,0.00373871776187585,0,2.81654252249978,static_reference,static_reference
63644,2.9422302,0.0146506350000806,2.92757956499992,Nausicaa,Nausicaa,0.0145380127198758,-0.136773554460713,1.23001683524625,-0.00179148072243259,0.0495125554931487,0.00191891565113955,0.998770051217037,-0.00378715005801332,0.0990583629827259,0.00403028092227355,0,2.83203646499992,static_reference,static_reference
63647,2.957505,0.0145239850000864,2.94298101499991,Nausicaa,Nausicaa,0.0144846666917713,-0.136827878808593,1.23000542855101,-0.00166895479067707,0.0495119899743721,0.00179435264802052,0.998770523061859,-0.00352879596497946,0.0990581651040884,0.00376804035794777,0,2.84743791499991,static_reference,static_reference
63650,2.9733346,0.0137182250002019,2.9596163749998,Nausicaa,Nausicaa,0.0144871297790002,-0.136796845544929,1.23001831744693,-0.00170460420950344,0.0494292806074401,0.00184104614721477,0.998774474589836,-0.0036046530971473,0.0988922412283412,0.0038649878579497,0,2.8640732749998,static_reference,static_reference
63654,2.9891504,0.014014835000311,2.97513556499969,Nausicaa,Nausicaa,0.0144744959182524,-0.136824368850232,1.23006693218086,-0.00167664983294354,0.0493290898539574,0.00171246073150123,0.998779704047775,-0.00353536675957941,0.0986921798426367,0.00360370107516213,0,2.87959246499969,static_reference,static_reference
63657,3.0037998,0.0137075974997986,2.9900922025002,Nausicaa,Nausicaa,0.0145817554981601,-0.136770085137853,1.22999746128827,-0.00179366771783684,0.0494216436071537,0.00190966330112523,0.998774567700521,-0.00379021833200911,0.0988763433949898,0.00401154251075267,0,2.8945491025002,static_reference,static_reference
63660,3.0190436,0.0140719925003818,3.00497160749962,Nausicaa,Nausicaa,0.0145530092743764,-0.136784233801719,1.22998874588889,-0.00184148350201868,0.0493979455106297,0.0019595677792265,0.998775556374884,-0.0038910510627085,0.0988285029858718,0.00411636543384238,0,2.90942850749962,static_reference,static_reference
63663,3.0349404,0.0142132250001976,3.0207271749998,Nausicaa,Nausicaa,0.0145174029253273,-0.136783054537598,1.23002944224254,-0.00187089055599433,0.0495423588080002,0.00217413494677649,0.998767904765417,-0.00397210005237132,0.0991167100840507,0.00455063942732753,0,2.9251840749998,static_reference,static_reference
