frame_number,t_read_host_s,vicon_latency_s,t_capture_host_s,subject_name,segment_name,x_m,y_m,z_m,qx,qy,qz,qw,roll_rad,pitch_rad,yaw_rad,is_occluded,t_elapsed_s,phase_name,phase_type
106057,0.0906544,0.0140606999998454,0.0765937000001546,Nausicaa,Nausicaa,-0.0263979592688639,-0.102366048096945,1.22835768773068,-0.000403142538184225,-0.00820021606919131,-0.0255249347498569,0.999640471188781,-0.00122477965667311,-0.016374687085242,-0.0510671635806522,0,-0.0135844999998454,unlabeled,unlabeled
106058,0.0964353,0.0129094999997506,0.0835258000002495,Nausicaa,Nausicaa,-0.0263915961614127,-0.102396150820954,1.22835639384789,-0.000386522870449952,-0.00820760233845584,-0.0255329919639511,0.999640211368717,-0.00119205729380763,-0.0163902943452306,-0.051083027954367,0,-0.00665239999975055,unlabeled,unlabeled
106062,0.1124845,0.0131508999998005,0.0993336000001995,Nausicaa,Nausicaa,-0.026427996045888,-0.102370449272792,1.22832628435069,-0.000414448175508825,-0.00811910351752306,-0.0255246938041381,0.99964113480638,-0.0012432378461971,-0.0162119325277869,-0.0510666978993914,0,0.00915540000019954,static_reference,static_reference
106065,0.1280334,0.0132604999998875,0.114772900000112,Nausicaa,Nausicaa,-0.0263806536075697,-0.102339863612307,1.22837164293271,-0.000387527526249593,-0.00813745550171624,-0.0255836686266771,0.999639488785819,-0.00119130513294121,-0.016249930114477,-0.0511842987205951,0,0.0245947000001124,static_reference,static_reference
106068,0.1438711,0.0140723000004073,0.129798799999593,Nausicaa,Nausicaa,-0.0264158974032908,-0.102351713356243,1.22835531144113,-0.000451443501173099,-0.00825972077941416,-0.0254935775135927,0.999640760832095,-0.00132388271858197,-0.0164912367936857,-0.051005341173981,0,0.0396205999995927,static_reference,static_reference
106071,0.1599228,0.01371539999991,0.14620740000009,Nausicaa,Nausicaa,-0.026384575610068,-0.102350396587188,1.22835573170017,-0.000531753168370316,-0.00817977243898118,-0.025647304622912,0.999637446440955,-0.00148289717888928,-0.0163270629784077,-0.0513140642574518,0,0.05602920000009,static_reference,static_reference
106074,0.1754486,0.0134262999999919,0.162022300000008,Nausicaa,Nausicaa,-0.0264045515933925,-0.102372889778765,1.2283617097573,-0.000352922364057749,-0.00826001475506651,-0.0255295312207331,0.999639880475815,-0.00112749280476174,-0.0164968086829273,-0.0510756563102877,0,0.0718441000000081,static_reference,static_reference
106077,0.1914886,0.0129761999996845,0.178512400000316,Nausicaa,Nausicaa,-0.0264027479974154,-0.102342606632191,1.22829846925936,-0.000530929245092519,-0.00803391540331386,-0.0256098707767794,0.999639589470238,-0.00147316078758352,-0.0160355329486545,-0.0512388146006219,0,0.0883342000003155,static_reference,static_reference
106081,0.2066661,0.0129907000000458,0.193675399999954,Nausicaa,Nausicaa,-0.0264060365788763,-0.10235097974447,1.22832345780094,-0.00047426926546507,-0.00808342801657806,-0.025581376542705,0.999639948398595,-0.00136194519444293,-0.0161374706148304,-0.0511810022730064,0,0.103497199999954,static_reference,static_reference
106083,0.2217011,0.0135338000000047,0.208167299999995,Nausicaa,Nausicaa,-0.0264098568029828,-0.10235521030782,1.22835914848719,-0.000497053139221145,-0.00821150970809155,-0.0255115682614215,0.999640677409305,-0.00141291635532615,-0.0163924911822639,-0.0510419808353393,0,0.117989099999995,static_reference,static_reference
106087,0.2375638,0.0136609000001044,0.223902899999896,Nausicaa,Nausicaa,-0.0264048081400595,-0.10235525838437,1.2283721302054,-0.000313902088330797,-0.00824867871597043,-0.0255394703605021,0.999639733213234,-0.00104905434956861,-0.01647612562801,-0.0510948784505635,0,0.133724699999896,static_reference,static_reference
106090,0.2534295,0.0144291000001431,0.239000399999857,Nausicaa,Nausicaa,-0.0264278354033303,-0.102369135037428,1.22836802267575,-0.000434444264246232,-0.00823247157676886,-0.0254761682956749,0.999641436975724,-0.00128821502764167,-0.0164376437046311,-0.0509701697645464,0,0.148822199999857,static_reference,static_reference
106093,0.2690936,0.0139946000003874,0.255098999999613,Nausicaa,Nausicaa,-0.0263767857571398,-0.102336821244224,1.22833179779263,-0.000452204568163543,-0.00807591934941147,-0.0255660323783802,0.999640411861244,-0.00131719394572406,-0.0161236071377891,-0.051149929045775,0,0.164920799999613,static_reference,static_reference
106096,0.283995,0.0143960000000334,0.269598999999967,Nausicaa,Nausicaa,-0.0264107310110842,-0.102369185763293,1.22835718886319,-0.000396300155342269,-0.00823296785750724,-0.0255157324665283,0.999640439649748,-0.00121261990718616,-0.0164405320514782,-0.0510487063628631,0,0.179420799999967,static_reference,static_reference
106099,0.3002453,0.0145732000000862,0.285672099999914,Nausicaa,Nausicaa,-0.0263988755950682,-0.102344142977168,1.22834306769735,-0.000506775599643974,-0.0081795646450052,-0.0255151167588335,0.999640843862181,-0.00143078348269751,-0.0163281184544643,-0.0510491676567752,0,0.195493899999914,static_reference,static_reference
106102,0.315822,0.0143198000000666,0.301502199999933,Nausicaa,Nausicaa,-0.0264283055997578,-0.102336047513136,1.22834297233037,-0.000460438565749256,-0.00801203123901047,-0.0255308723554409,0.999641820808094,-0.0013298260963733,-0.0159954942771429,-0.0510795743263811,0,0.211323999999933,static_reference,static_reference
106105,0.3311138,0.0143379999999524,0.316775800000048,Nausicaa,Nausicaa,-0.0264247499091354,-0.102340368936113,1.22831381112716,-0.000464133468906114,-0.00814170470816308,-0.0255753992835383,0.999639633155897,-0.00134456514318016,-0.0162545163741709,-0.0511690058543398,0,0.226597600000048,static_reference,static_reference
106108,0.3463288,0.0145870999999715,0.331741700000028,Nausicaa,Nausicaa,-0.026430344015672,-0.102352968301363,1.22831044881023,-0.000445222810531815,-0.00814229043021778,-0.0255047145407128,0.999641442928111,-0.00130563282636825,-0.0162567473984723,-0.0510272703742865,0,0.241563500000028,static_reference,static_reference
106111,0.3611492,0.0142469000002166,0.346902299999783,Nausicaa,Nausicaa,-0.0264045993790368,-0.102366830525428,1.22835310180497,-0.000330376750673334,-0.00818639767565515,-0.0255008277852285,0.999641226404037,-0.00107818060577805,-0.0163508000144095,-0.0510177120250734,0,0.256724099999783,static_reference,static_reference
106114,0.376554,0.0144609450002263,0.362093054999774,Nausicaa,Nausicaa,-0.0264293459930528,-0.102365754742424,1.22835549727747,-0.000430880423032176,-0.0081867337062056,-0.0254682674120534,0.999642015467694,-0.00127862736748005,-0.0163463863698557,-0.0509542059709988,0,0.271914854999774,static_reference,static_reference
106118,0.3926908,0.0142173000003557,0.378473499999644,Nausicaa,Nausicaa,-0.0264125360594161,-0.102359247488495,1.22836129298729,-0.000422547253799257,-0.00819252884420065,-0.0255007207092441,0.999641144195388,-0.0012627913111001,-0.0163583568579399,-0.0510190162007899,0,0.288295299999644,static_reference,static_reference
106121,0.4088189,0.0144559850002253,0.394362914999775,Nausicaa,Nausicaa,-0.026432560441594,-0.102330411866377,1.22830052722373,-0.000515013469523397,-0.0080670399967286,-0.0254279995473256,0.999643973855612,-0.00144010480561243,-0.0161028402206066,-0.0508747384147207,0,0.304184714999775,static_reference,static_reference
106124,0.4234706,0.0142350100000405,0.40923558999996,Nausicaa,Nausicaa,-0.0264368682929439,-0.102346670096651,1.22831783039561,-0.000459299371798508,-0.00812789525062161,-0.0254849411276166,0.999642058008067,-0.0013327236623927,-0.016227273599804,-0.050987904294273,0,0.31905738999996,static_reference,static_reference
106127,0.4395347,0.0145060375002208,0.425028662499779,Nausicaa,Nausicaa,-0.0264305094130627,-0.102360637581756,1.22832097349625,-0.000410492592619793,-0.00811039976579076,-0.0254962758346545,0.999641932308781,-0.00123442338241888,-0.0161947672148972,-0.0510097558443198,0,0.334850462499779,static_reference,static_reference
106130,0.4545735,0.0146329574997915,0.439940542500208,Nausicaa,Nausicaa,-0.02640525907223,-0.10234928816575,1.22830765687957,-0.000521595530079239,-0.00802695013193163,-0.025565155022664,0.999640794915028,-0.00145342385094226,-0.0160221497770498,-0.0511491798115829,0,0.349762342500208,static_reference,static_reference
106133,0.469976,0.0140268800005015,0.455949119999499,Nausicaa,Nausicaa,-0.0264352158326876,-0.102365352891758,1.22831487797856,-0.000553228172272202,-0.00810363098767165,-0.0254891364378752,0.999642100467491,-0.00151936876751286,-0.0161739639549449,-0.0509977642052278,0,0.365770919999499,static_reference,static_reference
106136,0.4853214,0.0146979049998517,0.470623495000148,Nausicaa,Nausicaa,-0.0264123949706122,-0.102354359898072,1.22836824680074,-0.000379199952300596,-0.00823505194826202,-0.0254973885175042,0.999640897175377,-0.00117823179884872,-0.01644559351446,-0.0510117261104682,0,0.380445295000148,static_reference,static_reference
106139,0.5013194,0.0150664124998741,0.486252987500126,Nausicaa,Nausicaa,-0.0264091381529765,-0.102324041030964,1.22833550648523,-0.000431954333448281,-0.00818945556331293,-0.0254294685382983,0.999642980449966,-0.00128027874752241,-0.0163518234847075,-0.0508765986087445,0,0.396074787500126,static_reference,static_reference
106142,0.5168278,0.0144360500002429,0.502391749999757,Nausicaa,Nausicaa,-0.02642193624956,-0.10235707087154,1.22830088988562,-0.000576882795326317,-0.00801394646576736,-0.0255344939769644,0.99964165253636,-0.0015628167838393,-0.0159933703659349,-0.0510886858163247,0,0.412213549999757,static_reference,static_reference
106145,0.5322933,0.0142145000004699,0.51807879999953,Nausicaa,Nausicaa,-0.0264043957552702,-0.10236327893837,1.22836070404756,-0.00039049150455582,-0.0082968461632674,-0.0255527879750341,0.9996389672711,-0.0012048818173794,-0.0165685032081304,-0.0511228844374941,0,0.42790059999953,static_reference,static_reference
106148,0.5473524,0.0143480949997981,0.533004305000202,Nausicaa,Nausicaa,-0.0264480354806774,-0.102367490368894,1.22830319055241,-0.000313580352067154,-0.00815650077747382,-0.0255115772608884,0.999641201926017,-0.00104324471737548,-0.0162918693246714,-0.051038889586075,0,0.442826105000202,static_reference,static_reference
106152,0.5631356,0.0144538124999797,0.54868178750002,Nausicaa,Nausicaa,-0.0264155809021527,-0.102361458544182,1.228342859946,-0.000392695562734975,-0.00821861918709215,-0.0254761387332025,0.999641568985654,-0.00120402942577047,-0.0164120747973136,-0.0509693966139105,0,0.45850358750002,static_reference,static_reference
106155,0.5787571,0.0141237074999503,0.56463339250005,Nausicaa,Nausicaa,-0.0264092292446568,-0.102360912494695,1.22835799897902,-0.00037747015750025,-0.00817726011313551,-0.0254867350331052,0.999641643925799,-0.00117164958972702,-0.0163301443142539,-0.0509902655096811,0,0.47445519250005,static_reference,static_reference
106158,0.5948392,0.0138040650000387,0.581035134999961,Nausicaa,Nausicaa,-0.0264394778607759,-0.102330631812815,1.22828770253445,-0.000604374627485136,-0.00804457277835367,-0.0253981043539695,0.999644864877197,-0.00161716286518594,-0.0160534213148749,-0.0508163057389711,0,0.490856934999961,static_reference,static_reference
106161,0.6100334,0.0136284224997004,0.5964049775003,Nausicaa,Nausicaa,-0.026411112824793,-0.102349722591336,1.2283564199624,-0.000440689999444283,-0.00823058666482487,-0.025497076963885,0.999640916680472,-0.00130095134434195,-0.0164335294488318,-0.0510121034630371,0,0.5062267775003,static_reference,static_reference
106164,0.6249738,0.0139100800003264,0.611063719999674,Nausicaa,Nausicaa,-0.026431779182753,-0.102378093596237,1.22831933926301,-0.000445449615358218,-0.00812092757957903,-0.0254945319958646,0.999641876347825,-0.00130483055780441,-0.0162140359297803,-0.0510068547376893,0,0.520885519999674,static_reference,static_reference
106167,0.6398936,0.0138266500000943,0.626066949999906,Nausicaa,Nausicaa,-0.0264203602288194,-0.10232755041679,1.22832042364466,-0.000454179241146108,-0.00808842614442253,-0.0255936775703723,0.99963960243287,-0.00132222903616097,-0.0161484757958457,-0.051205301595311,0,0.535888749999906,static_reference,static_reference
106170,0.6557621,0.0143125525002048,0.641449547499795,Nausicaa,Nausicaa,-0.0263994527036053,-0.102337069731951,1.22835228092013,-0.000486326547290071,-0.00821112434988043,-0.0255146667534738,0.999640606770183,-0.00139149912966737,-0.0163922638427874,-0.0510480039133727,0,0.551271347499795,static_reference,static_reference
106173,0.6713468,0.0143807475000331,0.656966052499967,Nausicaa,Nausicaa,-0.0263822135597753,-0.102377925672429,1.22832615372094,-0.000468176907798349,-0.00817314467078671,-0.0255203272408356,0.999640782188329,-0.00135336069071223,-0.016317245482428,-0.0510589492677882,0,0.566787852499967,static_reference,static_reference
106176,0.6862982,0.0148742374998803,0.67142396250012,Nausicaa,Nausicaa,-0.0264099663230843,-0.102381932807116,1.22835059472346,-0.000399068756925367,-0.00823593027976445,-0.0255382456761743,0.999639839244284,-0.00121867758981829,-0.0164462863993558,-0.0510938035968813,0,0.58124576250012,static_reference,static_reference
106180,0.7025204,0.0141954149997887,0.688324985000211,Nausicaa,Nausicaa,-0.0264293551565755,-0.102360007573168,1.22836868930288,-0.000322964508587392,-0.00827589263957157,-0.0255169943946991,0.999640079374574,-0.0010681944849319,-0.0165300985649838,-0.0510501084685588,0,0.598146785000211,static_reference,static_reference
106182,0.717525,0.0145375125002001,0.7029874874998,Nausicaa,Nausicaa,-0.0264045708917243,-0.102344892902594,1.22834176623884,-0.000474890051437427,-0.00823732873179136,-0.0255239122174383,0.999640160657784,-0.00137012174163451,-0.0164452283761175,-0.0510663732872287,0,0.6128092874998,static_reference,static_reference
106186,0.7334812,0.0146589225002357,0.718822277499764,Nausicaa,Nausicaa,-0.0263892405163903,-0.102377023175832,1.22834763421012,-0.0005138147150938,-0.00821241253516835,-0.0255807726223446,0.999638892974275,-0.00144761307958179,-0.0163933406480948,-0.0511807252482372,0,0.628644077499764,static_reference,static_reference
106189,0.7483605,0.0143330574996682,0.734027442500332,Nausicaa,Nausicaa,-0.0264556867083484,-0.102364376756187,1.22832418380876,-0.000440676537333816,-0.00812700251906789,-0.0254630874263494,0.999642630550019,-0.00129508611248961,-0.0162264664401305,-0.0509438745500517,0,0.643849242500332,static_reference,static_reference
106192,0.7634094,0.0147702899999109,0.748639110000089,Nausicaa,Nausicaa,-0.0264202763142772,-0.102346056610952,1.22832502581267,-0.000490013270916666,-0.00810164919792856,-0.025478281629874,0.99964242623673,-0.00139269090175078,-0.0161732402023897,-0.0509750193515224,0,0.658460910000089,static_reference,static_reference
106195,0.7789116,0.0144658800000444,0.764445719999956,Nausicaa,Nausicaa,-0.0264266925891928,-0.102337389562023,1.22831023240621,-0.000472278871554896,-0.00803951669501572,-0.0255283841901968,0.99964165815787,-0.00135486592616045,-0.0160498476248174,-0.0510748448522278,0,0.674267519999956,static_reference,static_reference
106198,0.7938699,0.0144902050000474,0.779379694999953,Nausicaa,Nausicaa,-0.0264139034392586,-0.1023686588654,1.22833291579735,-0.000453002940229664,-0.00819097163446971,-0.0255199504341538,0.999640652885755,-0.0013239241095343,-0.0163536641736705,-0.051057986416677,0,0.689201494999953,static_reference,static_reference
106201,0.8090149,0.014509107500145,0.794505792499855,Nausicaa,Nausicaa,-0.0263778357527037,-0.102349135894934,1.22834654032763,-0.000494990731364902,-0.00813371145737823,-0.0255382735682096,0.999640632580158,-0.00140525329145213,-0.0162370079614156,-0.0510952060605796,0,0.704327592499855,static_reference,static_reference
106204,0.8239544,0.0147788650004627,0.809175534999537,Nausicaa,Nausicaa,-0.0264253667339437,-0.10235653918258,1.2283481136832,-0.000444829579683067,-0.0081948034034543,-0.0254979636795369,0.999641186212343,-0.00130741690769343,-0.0163617715116482,-0.0510138688472809,0,0.718997334999537,static_reference,static_reference
106207,0.8389812,0.0139754550003781,0.825005744999622,Nausicaa,Nausicaa,-0.0264029825430104,-0.102358543906258,1.22836220205964,-0.00038711078728186,-0.00821382469749741,-0.0255814853755164,0.999638920228229,-0.0011943466394717,-0.0164026474687415,-0.0511800785110412,0,0.734827544999622,static_reference,static_reference
106210,0.8539242,0.0145237400002218,0.839400459999778,Nausicaa,Nausicaa,-0.0264334981512068,-0.102370305894724,1.2283053456296,-0.000557204272534634,-0.00806275115481038,-0.0254844063626105,0.999642549414319,-0.00152515711208166,-0.0160920327049099,-0.0509882682597933,0,0.749222259999778,static_reference,static_reference
106213,0.8700099,0.014633675000362,0.855376224999638,Nausicaa,Nausicaa,-0.0264221429601914,-0.102345921868867,1.22830497225955,-0.000523979996392262,-0.00807801986857695,-0.0255217799013026,0.999641490630834,-0.00146010550047848,-0.0161242005202345,-0.0510625475438906,0,0.765198024999638,static_reference,static_reference
106216,0.8858786,0.0146861100003681,0.871192489999632,Nausicaa,Nausicaa,-0.0264356655260017,-0.102359838410839,1.22831125523094,-0.00040541109928675,-0.00810912720626132,-0.0254845431691391,0.999642243883908,-0.00122400769430009,-0.0161924963940485,-0.0509861957481397,0,0.781014289999632,static_reference,static_reference
106219,0.9017835,0.014476252499719,0.887307247500281,Nausicaa,Nausicaa,-0.02642834518879,-0.102356556500519,1.22836469245303,-0.000422588632658538,-0.00820692819803081,-0.0255140778184749,0.999640685237187,-0.00126382801554454,-0.0163871281544643,-0.0510457727039889,0,0.797129047500281,static_reference,static_reference
106223,0.9172071,0.0137115475001462,0.903495552499854,Nausicaa,Nausicaa,-0.026420527540881,-0.102353573337235,1.22835651419828,-0.000388212882763444,-0.00821455826646353,-0.0254980495788904,0.999641045471282,-0.001195218587304,-0.0164041575911701,-0.0510131552031805,0,0.813317352499854,static_reference,static_reference
106225,0.9323102,0.0142328875001021,0.918077312499898,Nausicaa,Nausicaa,-0.0264146201267235,-0.10232571419308,1.22828458002659,-0.000585646093549631,-0.0080576375773778,-0.0254325736792831,0.999643894440101,-0.00158093305951729,-0.0160804404467613,-0.0508850042430542,0,0.827899112499898,static_reference,static_reference
106228,0.9470609,0.0141848549998211,0.932876045000179,Nausicaa,Nausicaa,-0.0264018112598658,-0.102362745650202,1.22835590672632,-0.000400717462544178,-0.00818208264485578,-0.0255269254574146,0.999640569917908,-0.00121903670093727,-0.0163385522619085,-0.0510710697446504,0,0.842697845000179,static_reference,static_reference
106231,0.9620571,0.0146207425003599,0.94743635749964,Nausicaa,Nausicaa,-0.0264395717663977,-0.102356232334204,1.22833442586427,-0.000458495934709955,-0.00811315589842054,-0.0255012407527494,0.999641762434381,-0.00133062939920079,-0.0161978227850261,-0.051020472510358,0,0.85725815749964,static_reference,static_reference
106234,0.977386,0.0144736875004168,0.962912312499583,Nausicaa,Nausicaa,-0.0264021948730812,-0.102351757965102,1.22838080510108,-0.000430359825994044,-0.00824012839912427,-0.0255010789155873,0.999640740490566,-0.00128084847202851,-0.0164531291447707,-0.0510199613904455,0,0.872734112499583,static_reference,static_reference
106237,0.9924598,0.014529880000138,0.977929919999862,Nausicaa,Nausicaa,-0.0263756313787523,-0.102347445410588,1.22831149227556,-0.000570856130255334,-0.0080938408449585,-0.0254521842804444,0.99964311140477,-0.00155351995977036,-0.016153547920943,-0.050924090259019,0,0.887751719999862,static_reference,static_reference
106241,1.0073806,0.014008650000076,0.993371949999924,Nausicaa,Nausicaa,-0.0264151341865688,-0.102362269505255,1.22833926944704,-0.000544742765303837,-0.00821193299212289,-0.0255234931978865,0.999640344677439,-0.0015084913270533,-0.0163908854993353,-0.0510666228936517,0,0.903193749999924,static_reference,static_reference
106244,1.0236049,0.0143464100000209,1.00925848999998,Nausicaa,Nausicaa,-0.0264486168626142,-0.102349056857397,1.22832089581278,-0.000476236350792015,-0.00813380801551154,-0.02549371406898,0.999641778293141,-0.00136703410826708,-0.0162382201568116,-0.0510057451894314,0,0.919080289999979,static_reference,static_reference
106247,1.0395153,0.0143838524997613,1.02513144750024,Nausicaa,Nausicaa,-0.0264161957222104,-0.102323129312505,1.22833251481809,-0.000549918490269123,-0.008025668117628,-0.0255339618730912,0.999641587286155,-0.00150949121578291,-0.016018185024956,-0.0510872175464836,0,0.934953247500239,static_reference,static_reference
106250,1.0546587,0.0137289875002332,1.04092971249977,Nausicaa,Nausicaa,-0.0264138735315077,-0.10234834719712,1.22835672213157,-0.000351186837549805,-0.00824504475981579,-0.0255498298048713,0.99963948606568,-0.00112359200996548,-0.0164669432712955,-0.0511162128119019,0,0.950751512499767,static_reference,static_reference
106253,1.0699101,0.0136963900002503,1.05621370999975,Nausicaa,Nausicaa,-0.0264065550137082,-0.102335506553198,1.22832190598531,-0.000584167538847407,-0.00803847044581948,-0.0255640281760318,0.999640696552813,-0.00157911050096727,-0.0160419850865299,-0.0511479543807742,0,0.96603550999975,static_reference,static_reference
106256,1.0860808,0.0143729149996855,1.07170788500031,Nausicaa,Nausicaa,-0.0264211810718098,-0.102340168284543,1.22832049112034,-0.000457326192769642,-0.00814231219332662,-0.0255686974007862,0.999639802788048,-0.00133087580137308,-0.0162560882042238,-0.051155487137271,0,0.981529685000315,static_reference,static_reference
106259,1.1009227,0.0144332225000943,1.08648947749991,Nausicaa,Nausicaa,-0.0263702293973366,-0.102339646311276,1.22836939242238,-0.000408269698362299,-0.00814616436174298,-0.0255799424333801,0.999639504955236,-0.00123316532094772,-0.0162662857011088,-0.0511771979036352,0,0.996311277499906,static_reference,static_reference
106262,1.1165015,0.0146447850001407,1.10185671499986,Nausicaa,Nausicaa,-0.0264127661588051,-0.102366503464022,1.22834727975434,-0.000411891203481365,-0.00822068015671111,-0.025530507107853,0.999640157241701,-0.00124341008062861,-0.0164151496129843,-0.0510784987653512,0,1.01167851499986,static_reference,static_reference
106265,1.1322838,0.0145947149998915,1.11768908500011,Nausicaa,Nausicaa,-0.0264522582754241,-0.102347200123862,1.22831797057189,-0.000437275491259254,-0.00814692515647108,-0.025506807606631,0.999641355270158,-0.00129001245477663,-0.016266416935265,-0.0510313390215119,0,1.02751088500011,static_reference,static_reference
106269,1.1480304,0.0145044250000601,1.13352597499994,Nausicaa,Nausicaa,-0.0264256772487199,-0.10236959472082,1.22835319807832,-0.000431080054665492,-0.00818158688671061,-0.0254662233053022,0.999642109595512,-0.00127873075846107,-0.0163360881748987,-0.0509501084119403,0,1.04334777499994,static_reference,static_reference
106272,1.1629861,0.014560610000045,1.14842548999995,Nausicaa,Nausicaa,-0.0264192570731225,-0.102376689165085,1.22834822276787,-0.000430002013039549,-0.00822133185935212,-0.0254854166003446,0.99964129483602,-0.00127891633352053,-0.0164155853347443,-0.0509885777070836,0,1.05824728999995,static_reference,static_reference
106275,1.1787518,0.0145331400003274,1.16421865999967,Nausicaa,Nausicaa,-0.0264376951407142,-0.102334770376948,1.22833472762012,-0.00045545037902582,-0.0081512299038298,-0.0255713374288474,0.999639663437835,-0.00132762442024439,-0.0162740108193128,-0.0511607582395231,0,1.07404045999967,static_reference,static_reference
106278,1.1945844,0.0142567250001148,1.18032767499989,Nausicaa,Nausicaa,-0.0264110532116233,-0.102351226305182,1.22832181197657,-0.000492328505815369,-0.00806799971846268,-0.0255348078933349,0.999641254940509,-0.00139651499147924,-0.0161057639843259,-0.0510880823635811,0,1.09014947499989,static_reference,static_reference
106281,1.210671,0.0144065500002388,1.19626444999976,Nausicaa,Nausicaa,-0.0264068725304686,-0.102335508624377,1.22835796074348,-0.000446473606548011,-0.00822828630446669,-0.0255665244707442,0.999639159293141,-0.00131354000168069,-0.0164285438434876,-0.0511511478213998,0,1.10608624999976,static_reference,static_reference
106284,1.2262235,0.0147809100000191,1.21144258999998,Nausicaa,Nausicaa,-0.0264160277599167,-0.102362010145791,1.22835051608819,-0.00040604116583965,-0.00820244555642974,-0.0254626345104433,0.999642040563147,-0.00122966863599029,-0.0163790734085625,-0.0509425621043549,0,1.12126438999998,static_reference,static_reference
106287,1.2413038,0.0145248249999889,1.22677897500001,Nausicaa,Nausicaa,-0.0264212819120392,-0.102334021712047,1.22837063456777,-0.000435156999427846,-0.00818019299583326,-0.0255688937183614,0.999639498396775,-0.00128848943487759,-0.0163329612492272,-0.051155600226391,0,1.13660077500001,static_reference,static_reference
106290,1.2564251,0.0141325599998473,1.24229254000015,Nausicaa,Nausicaa,-0.0264392768172871,-0.102328667091709,1.2283130131434,-0.000509096248323793,-0.00804603566117116,-0.0254089523396408,0.999644630492332,-0.00142689785771574,-0.0160611720040103,-0.050836485616858,0,1.15211434000015,static_reference,static_reference
106293,1.2710163,0.0142494925000935,1.25676680749991,Nausicaa,Nausicaa,-0.0264010332208184,-0.102354214793217,1.22833506110938,-0.00048815793539497,-0.00817372279596674,-0.0255019172091896,0.999641237732888,-0.00139304271015775,-0.0163174069152033,-0.0510224405810104,0,1.16658860749991,static_reference,static_reference
106296,1.2864366,0.0141783275000747,1.27225827249993,Nausicaa,Nausicaa,-0.0264320258269832,-0.102357676290633,1.22836887099982,-0.000411770526653768,-0.00820991908523203,-0.0254978452348066,0.999641079369005,-0.00124208318212051,-0.0163936805274161,-0.0510131227940567,0,1.18208007249993,static_reference,static_reference
106300,1.3024131,0.014036932500407,1.28837616749959,Nausicaa,Nausicaa,-0.0263916062310156,-0.10237044840054,1.22837430545795,-0.000357178545515108,-0.00823595478271542,-0.0255697984665019,0.999639048296277,-0.00113543648787677,-0.0164484397154914,-0.0511562478426764,0,1.19819796749959,static_reference,static_reference
106303,1.3176986,0.0135226349997321,1.30417596500027,Nausicaa,Nausicaa,-0.0264083918177627,-0.10234950378149,1.22829821462022,-0.00051932657749547,-0.00812184126647951,-0.0255633047128767,0.999640076950952,-0.00145371307260919,-0.0162119948039133,-0.0511456573073259,0,1.21399776500027,static_reference,static_reference
106306,1.3334457,0.0135818075002046,1.3198638924998,Nausicaa,Nausicaa,-0.0264231039970118,-0.102415249655751,1.22836746210532,-0.000512920800569248,-0.00825551562189028,-0.0255523466374905,0.999639265412972,-0.00144756420223458,-0.0164796083885483,-0.0511239329266299,0,1.2296856924998,static_reference,static_reference
106309,1.3495082,0.0136863400004494,1.33582185999955,Nausicaa,Nausicaa,-0.0264299035559429,-0.102293751927024,1.22825016411769,-0.000636144444527626,-0.00793643194486476,-0.0253713120955787,0.999646389925347,-0.00167476514505555,-0.0158356332814841,-0.0507629393227702,0,1.24564365999955,static_reference,static_reference
106312,1.3653479,0.0134403850002615,1.35190751499974,Nausicaa,Nausicaa,-0.0264082803360087,-0.10237417026729,1.22835494227985,-0.000494820729390251,-0.00822807309540784,-0.0255272176034778,0.999640142814907,-0.00140955556794316,-0.0164257001444459,-0.0510732935334867,0,1.26172931499974,static_reference,static_reference
106315,1.3808798,0.0141065425002035,1.3667732574998,Nausicaa,Nausicaa,-0.0264040584321326,-0.102354320073675,1.22832182947835,-0.000588446373553405,-0.00822307594044071,-0.0255140612817647,0.999640469083687,-0.00159629337398074,-0.0164109482878769,-0.0510484938226951,0,1.2765950574998,static_reference,static_reference
106318,1.3959697,0.0146192924998415,1.38135040750016,Nausicaa,Nausicaa,-0.0264013350500783,-0.102374861205781,1.22833723709996,-0.000453952048565099,-0.00819260804455254,-0.0255656427519309,0.999639471515429,-0.00132665320817296,-0.0163568269571151,-0.0511494290779292,0,1.29117220750016,static_reference,static_reference
106321,1.4119144,0.0143462424998087,1.39756815750019,Nausicaa,Nausicaa,-0.0264217887502851,-0.102329934266085,1.22835155134263,-0.000445186797611356,-0.00806262940003577,-0.0255678265117569,0.999640476403061,-0.00130251042613327,-0.0160973916712412,-0.0511533775038199,0,1.30738995750019,static_reference,static_reference
106325,1.4279024,0.0141713824999034,1.4137310175001,Nausicaa,Nausicaa,-0.0264199441575787,-0.102360501366032,1.22833099207466,-0.00044131019294755,-0.0081078545960669,-0.0255337135601348,0.999640984259345,-0.00129652102320159,-0.0161880579340253,-0.0510851562572413,0,1.3235528175001,static_reference,static_reference
106328,1.442764,0.0142717675001587,1.42849223249984,Nausicaa,Nausicaa,-0.0264059929569954,-0.102354250215598,1.22833948226888,-0.00044362298020561,-0.00821025171906383,-0.0255161819273541,0.999640595126674,-0.00130609148709936,-0.0163926968656101,-0.0510503342256398,0,1.33831403249984,static_reference,static_reference
106331,1.4587778,0.0140519575001751,1.44472584249983,Nausicaa,Nausicaa,-0.0264308648150165,-0.102346001764268,1.22835063318071,-0.000452122225092799,-0.00823627637817976,-0.0254980193180376,0.999640840676176,-0.00132411656455112,-0.0164443211667363,-0.0510141889914747,0,1.35454764249983,static_reference,static_reference
106334,1.4743588,0.0140327124999088,1.46032608750009,Nausicaa,Nausicaa,-0.0264348194265114,-0.102311901821882,1.22828130444936,-0.000567221026823528,-0.00803100161168338,-0.0253962317176715,0.999645043346868,-0.00154215242994068,-0.0160281776261384,-0.0508119309206678,0,1.37014788750009,static_reference,static_reference
106337,1.4904655,0.0138993049999773,1.47656619500002,Nausicaa,Nausicaa,-0.0263584275835477,-0.102313497614452,1.22823260777408,-0.000599641574348546,-0.00779851913508013,-0.0254779967210097,0.999644784517164,-0.00159643240680366,-0.015561570692377,-0.0509754888654886,0,1.38638799500002,static_reference,static_reference
106340,1.5054544,0.0139522000003649,1.49150219999964,Nausicaa,Nausicaa,-0.0264310379838584,-0.102332579440637,1.22832415868616,-0.000484273572337014,-0.00805210176638192,-0.0255216309086653,0.999641723565004,-0.00137938431641611,-0.0160744070995819,-0.0510615526143583,0,1.40132399999964,static_reference,static_reference
106343,1.5205704,0.014384782499782,1.50618561750022,Nausicaa,Nausicaa,-0.0264203688128162,-0.102357063434589,1.22834898891394,-0.000443393542281203,-0.00812778600668189,-0.0255188767263246,0.999641200345115,-0.00130146457285926,-0.0162278219451329,-0.0510555461381136,0,1.41600741750022,static_reference,static_reference
106346,1.5368947,0.0146475425001942,1.52224715749981,Nausicaa,Nausicaa,-0.0264358977433535,-0.102353079785089,1.22830921511926,-0.000462191796087106,-0.00809272296786617,-0.0254626815439895,0.999642909274256,-0.00133635317574752,-0.0161568319074535,-0.050943337112175,0,1.43206895749981,static_reference,static_reference
106349,1.5520524,0.0150256750001969,1.5370267249998,Nausicaa,Nausicaa,-0.0263966338855379,-0.102357107517822,1.22832687357098,-0.000504880480021327,-0.0081857836460941,-0.0255248580386909,0.999640545228086,-0.0014274709871952,-0.016340635642212,-0.0510686416592159,0,1.4468485249998,static_reference,static_reference
106353,1.5680498,0.0143465700001372,1.55370322999986,Nausicaa,Nausicaa,-0.0264209636459694,-0.102338589222088,1.22837731987961,-0.000472645888668658,-0.00821768011973768,-0.0255875328543743,0.999638696980934,-0.00136567477068453,-0.0164059703604072,-0.0511935887613875,0,1.46352502999986,static_reference,static_reference
106356,1.5837113,0.0143412724998299,1.56937002750017,Nausicaa,Nausicaa,-0.026434520701813,-0.102354054201864,1.22834818097766,-0.000414346302860706,-0.00822403697509403,-0.0254684454521043,0.999641711724369,-0.0012474710952737,-0.0164218133704562,-0.0509543698179988,0,1.47919182750017,static_reference,static_reference
106359,1.5994034,0.0148134650003299,1.58458993499967,Nausicaa,Nausicaa,-0.0264319068492861,-0.102355378379275,1.22832555425301,-0.000480262185426422,-0.0081123229320902,-0.0255094413477649,0.999641549740208,-0.00137424236883989,-0.0161950356230442,-0.0510372310664997,0,1.49441173499967,static_reference,static_reference
106362,1.6149583,0.0137061350004413,1.60125216499956,Nausicaa,Nausicaa,-0.0264174075366137,-0.102357474007905,1.22831084384986,-0.000553617085212185,-0.00808268651901663,-0.0255031660454238,0.999641911990698,-0.00151930415012251,-0.0161320461342233,-0.0510257924650998,0,1.51107396499956,static_reference,static_reference
106365,1.6304391,0.0137203025000937,1.61671879749991,Nausicaa,Nausicaa,-0.0264259089046856,-0.102343162123546,1.22830402037825,-0.000578237146598696,-0.00806552495892819,-0.0255353985738375,0.999641213820546,-0.00156817594676583,-0.0160964263628389,-0.0510906405521546,0,1.52654059749991,static_reference,static_reference
106368,1.6465828,0.0141942299998539,1.63238857000015,Nausicaa,Nausicaa,-0.0264269472816508,-0.102336267990183,1.22829845824077,-0.000461468193745861,-0.0080390898692729,-0.0254663268870678,0.999643249502572,-0.00133223128591986,-0.0160496290702244,-0.050950503630052,0,1.54221037000015,static_reference,static_reference
106371,1.6618213,0.0141563375000717,1.64766496249993,Nausicaa,Nausicaa,-0.0264092229365813,-0.102343722467449,1.22832409178538,-0.000582240413488099,-0.00817801675252092,-0.0254593668208316,0.999642236842351,-0.00158068966369638,-0.0163212595837486,-0.0509388476977405,0,1.55748676249993,static_reference,static_reference
106374,1.6772139,0.0143639225000538,1.66284997749995,Nausicaa,Nausicaa,-0.0264056110394265,-0.102335139868944,1.22837032658198,-0.000438768208935128,-0.00814433306115947,-0.0255214924643141,0.999641000931755,-0.00129310377361672,-0.0162611390987958,-0.0510607399649377,0,1.57267177749995,static_reference,static_reference
106377,1.6922473,0.0142451725000925,1.67800212749991,Nausicaa,Nausicaa,-0.0264125214539899,-0.102371407355849,1.22830439358783,-0.000534490550560177,-0.00807493112754321,-0.0255117929389943,0.999641764947911,-0.00148080297039294,-0.0161175029925448,-0.051042727378576,0,1.58782392749991,static_reference,static_reference
106381,1.7080581,0.0144033099996886,1.69365479000031,Nausicaa,Nausicaa,-0.0264127074842281,-0.102367394741948,1.22834291672638,-0.000409354939056336,-0.00818655249331533,-0.025487576873395,0.999641533856978,-0.00123589261354177,-0.016347096908004,-0.0509924893480751,0,1.60347659000031,static_reference,static_reference
106384,1.7236784,0.0142889825002993,1.7093894174997,Nausicaa,Nausicaa,-0.0264259098217094,-0.102356841816662,1.22832825087169,-0.000413435161164502,-0.00812002212856056,-0.0255132380236167,0.999641420209042,-0.00124107338489826,-0.016213835161761,-0.0510437621112264,0,1.6192112174997,static_reference,static_reference
106387,1.7398602,0.0147185825003091,1.72514161749969,Nausicaa,Nausicaa,-0.0264318692217626,-0.102341251682298,1.22832410242452,-0.00041563652626275,-0.0081518840348232,-0.0254898662074366,0.999641756207536,-0.0012467216031049,-0.0162774570981232,-0.0509971004456572,0,1.63496341749969,static_reference,static_reference
106390,1.7556312,0.0147954599998211,1.74083574000018,Nausicaa,Nausicaa,-0.0264214886054524,-0.102361820991383,1.22832386613278,-0.000435039661777575,-0.00810638974870965,-0.0254835428981069,0.999642279131438,-0.00128309555501761,-0.0161855138236558,-0.0509846679139865,0,1.65065754000018,static_reference,static_reference
106393,1.7711148,0.0146311100001503,1.75648368999985,Nausicaa,Nausicaa,-0.0264373227001571,-0.102371996977113,1.22834655922557,-0.000399895972065612,-0.00821012503831925,-0.0254980176456519,0.99964107810064,-0.00121835274334793,-0.0163946978148443,-0.0510132736806649,0,1.66630548999985,static_reference,static_reference
106396,1.7860644,0.0147598900004299,1.77130450999957,Nausicaa,Nausicaa,-0.0264224241783067,-0.102358849892628,1.22835721265486,-0.000371568265126072,-0.00827188781183484,-0.0255046401982237,0.999640410916552,-0.00116497157033158,-0.016519624584557,-0.0510261841381097,0,1.68112630999957,static_reference,static_reference
106399,1.8011776,0.0148253550001415,1.78635224499986,Nausicaa,Nausicaa,-0.0263951508412884,-0.102302677045875,1.22828973885236,-0.000560060731961784,-0.00807298932015513,-0.0254872923869803,0.999642391609216,-0.00153143755846275,-0.0161123529796319,-0.0509941127606943,0,1.69617404499986,static_reference,static_reference
106402,1.8168647,0.0150519700003374,1.80181272999966,Nausicaa,Nausicaa,-0.0264134064428807,-0.102349863655845,1.2283263598508,-0.000541666565795799,-0.00815565293516186,-0.0254665138197944,0.999642260309356,-0.0014985367838587,-0.0162786008932475,-0.0509524339449662,0,1.71163452999966,static_reference,static_reference
106406,1.8323784,0.0136169700003249,1.81876142999968,Nausicaa,Nausicaa,-0.0264334624119201,-0.102310466361963,1.22834039682249,-0.00056028048663059,-0.00806381781828563,-0.0255258936124529,0.999641480573538,-0.00153203054630859,-0.0160939449990753,-0.0510713297702918,0,1.72858322999968,static_reference,static_reference
106409,1.8473413,0.0138037174999554,1.83353758250004,Nausicaa,Nausicaa,-0.0263811630679904,-0.102362624707948,1.22837906789278,-0.000440395676328339,-0.00828212545489415,-0.0255534046762503,0.999639052838098,-0.00130392508891443,-0.0165365185318544,-0.0511249127705509,0,1.74335938250004,static_reference,static_reference
106412,1.8623029,0.0137537399997062,1.84854916000029,Nausicaa,Nausicaa,-0.0264107014425601,-0.102367773255599,1.22836539662077,-0.000380583930876201,-0.0082324832938837,-0.025480186873966,0.999641356413167,-0.00118058511832854,-0.0164404074284486,-0.0509773257105303,0,1.75837096000029,static_reference,static_reference
106415,1.8775851,0.0139853875003154,1.86359971249968,Nausicaa,Nausicaa,-0.0264204092584389,-0.102301124428763,1.22828865458513,-0.00060487694313035,-0.00797751601680311,-0.0255001815353527,0.999642803257118,-0.00161638349039046,-0.015919156366778,-0.0510203907272307,0,1.77342151249968,static_reference,static_reference
106418,1.8942538,0.0136914649998258,1.88056233500017,Nausicaa,Nausicaa,-0.026430073755208,-0.1023603885644,1.22837193691067,-0.000416928418777253,-0.00827835767822584,-0.0255403679311993,0.999639427279049,-0.0012565927806571,-0.016530201242001,-0.0510984324275931,0,1.79038413500017,static_reference,static_reference
106421,1.9087351,0.0146731175000063,1.89406198249999,Nausicaa,Nausicaa,-0.0263933535423406,-0.102354606514672,1.22835566598149,-0.000434196715644989,-0.00820346270107092,-0.0254657054661709,0.999641942156308,-0.00128606929877481,-0.0163796689392359,-0.0509491695320124,0,1.80388378249999,static_reference,static_reference
106424,1.9245443,0.0146115700002735,1.90993272999973,Nausicaa,Nausicaa,-0.0263986958779527,-0.102339139396832,1.22824809965726,-0.00058240651950962,-0.00787887455315012,-0.0254390477125973,0.999645156538008,-0.00156545598401643,-0.015723173671994,-0.0508974802220049,0,1.81975452999973,static_reference,static_reference
106427,1.9403072,0.0142907850003735,1.92601641499963,Nausicaa,Nausicaa,-0.0264196011361834,-0.102346516882135,1.22829738980784,-0.000594817541609202,-0.00812536427784139,-0.0255407723797511,0.99964058220627,-0.00160447528483187,-0.0162152141327356,-0.0511018047284778,0,1.83583821499963,static_reference,static_reference
106430,1.9564796,0.0143755375003095,1.94210406249969,Nausicaa,Nausicaa,-0.0263936445184581,-0.102340421670843,1.22830795611038,-0.000547562639066118,-0.00801504917938804,-0.0255883001671844,0.9996402843305,-0.00150510745833208,-0.0159969919598553,-0.0511958776879694,0,1.85192586249969,static_reference,static_reference
106433,1.9720537,0.0147369375001095,1.95731676249989,Nausicaa,Nausicaa,-0.0264263231856699,-0.102345419720871,1.22831729891063,-0.000456263916903305,-0.00812267809001785,-0.0254805494420857,0.999642213756509,-0.00132631673503868,-0.0162170029166056,-0.0509790567504074,0,1.86713856249989,static_reference,static_reference
106437,1.9877983,0.0145513924999606,1.97324690750004,Nausicaa,Nausicaa,-0.0264451792059245,-0.102366514164837,1.22835525845954,-0.000373440619083689,-0.00823750576110405,-0.025485467098512,0.999641183129082,-0.00116664473371103,-0.0164508073939641,-0.0509877833923792,0,1.88306870750004,static_reference,static_reference
106440,2.0037184,0.0145169874999459,1.98920141250005,Nausicaa,Nausicaa,-0.0264223506986453,-0.102366639863367,1.22836038408034,-0.000372376864486909,-0.00821477068245894,-0.0254824599311272,0.999641447276954,-0.00116330862879102,-0.0164054082260348,-0.0509817034933284,0,1.89902321250005,static_reference,static_reference
106443,2.019924,0.0143604199998214,2.00556358000018,Nausicaa,Nausicaa,-0.0263981686942664,-0.102364287751019,1.22835875819137,-0.000398337640129267,-0.00827983583457642,-0.0255552802872361,0.99963904150204,-0.00121974178723885,-0.0165340883819326,-0.0511279659280614,0,1.91538538000018,static_reference,static_reference
106446,2.036163,0.0142682124999056,2.02189478750009,Nausicaa,Nausicaa,-0.0264098302888347,-0.102360584132914,1.22835973177349,-0.000464437028661548,-0.00815415110358308,-0.0255416647217326,0.999640394082427,-0.00134525987795606,-0.0162794317081362,-0.0511015400336696,0,1.93171658750009,static_reference,static_reference
106449,2.0515701,0.0139554775004392,2.03761462249956,Nausicaa,Nausicaa,-0.0264278172774799,-0.102334280519244,1.2283423656146,-0.000456907643306229,-0.00804969971987063,-0.0255136826641862,0.999641958686577,-0.00132441448801903,-0.0160710121840783,-0.0510452047233035,0,1.94743642249956,static_reference,static_reference
106453,2.0673774,0.0137540925000134,2.05362330749999,Nausicaa,Nausicaa,-0.0264341386582467,-0.102346841281281,1.22832439776689,-0.000438978612897879,-0.00808633778448877,-0.02547435807545,0.999642673918864,-0.0012898004963852,-0.0161452326700074,-0.0509663117937232,0,1.96344510749999,static_reference,static_reference
106456,2.0830259,0.0144466875001489,2.06857921249985,Nausicaa,Nausicaa,-0.0264351965755865,-0.10234402473186,1.22831733857228,-0.000447585109770954,-0.00812218342138097,-0.0254793755109617,0.999642251621854,-0.00130891877198424,-0.0162164578091431,-0.050976566211737,0,1.97840101249985,static_reference,static_reference
106459,2.0984559,0.014821319999813,2.08363458000019,Nausicaa,Nausicaa,-0.0264162442715257,-0.102362068655466,1.22837390864478,-0.000385453322336686,-0.00822901650618738,-0.0255219024408517,0.999640318919198,-0.00119083074636808,-0.0164331779832509,-0.0510608653778732,0,1.99345638000019,static_reference,static_reference
106462,2.1145869,0.0146390725003413,2.09994782749966,Nausicaa,Nausicaa,-0.0264108998392517,-0.102365097290779,1.22837244838538,-0.000402255348867451,-0.0082029530859769,-0.025503853772805,0.999640987151907,-0.00122280004703445,-0.0163802306097821,-0.0510249747827099,0,2.00976962749966,static_reference,static_reference
106465,2.1296035,0.0141579199998079,2.11544558000019,Nausicaa,Nausicaa,-0.0264253380659909,-0.102321828355486,1.22830981642069,-0.000504436577392202,-0.00804360978596365,-0.0254461250230819,0.999643706830919,-0.00141805436721498,-0.0160565058091453,-0.0509107820058832,0,2.02526738000019,static_reference,static_reference
106468,2.1446565,0.0143645450003191,2.13029195499968,Nausicaa,Nausicaa,-0.0264111899184289,-0.102349289966152,1.22831162378666,-0.000533661254920173,-0.00802428097058078,-0.0255568344364158,0.999641022734741,-0.00147727981411871,-0.0160162082222494,-0.051132718618398,0,2.04011375499968,static_reference,static_reference
106471,2.1597346,0.0139803475002523,2.14575425249975,Nausicaa,Nausicaa,-0.0264334769835749,-0.102354854978852,1.22830006224762,-0.000574686798306798,-0.00808534008317616,-0.0254789566372893,0.999642495985189,-0.00156117862972044,-0.0161363144981235,-0.050977699119034,0,2.05557605249975,static_reference,static_reference
106474,2.1752633,0.0139555650003447,2.16130773499966,Nausicaa,Nausicaa,-0.026400142047156,-0.102366704767354,1.22836078077175,-0.000423281924258667,-0.00817429319344882,-0.0255997862164159,0.999638761107668,-0.00126494717704957,-0.0163217334606663,-0.0512172054328484,0,2.07112953499966,static_reference,static_reference
106477,2.1903142,0.0145360325002658,2.17577816749973,Nausicaa,Nausicaa,-0.0264092029831604,-0.102332905749884,1.2282867735167,-0.0005755492912086,-0.00800435075339346,-0.0255617889395923,0.999641032600322,-0.00156009610227024,-0.0159742101280356,-0.0511432546560412,0,2.08559996749973,static_reference,static_reference
106480,2.2052397,0.0143549275000538,2.19088477249995,Nausicaa,Nausicaa,-0.0264149928079173,-0.102369998265856,1.22835669881516,-0.000455382672400659,-0.00823761021257524,-0.025538102748034,0.999639804986095,-0.00133136361727348,-0.0164467683686137,-0.0510944465494856,0,2.10070657249995,static_reference,static_reference
106483,2.2213209,0.0142623900000218,2.20705850999998,Nausicaa,Nausicaa,-0.0264281795935535,-0.102357204333453,1.22832674530192,-0.000470950940091474,-0.00814611642977983,-0.0254916112264856,0.999641734197508,-0.00135705957085651,-0.0162631022042226,-0.0510014788780996,0,2.11688030999998,static_reference,static_reference
106487,2.2376117,0.0144555349997175,2.22315616500028,Nausicaa,Nausicaa,-0.0264187374863184,-0.102338572068314,1.22836488346242,-0.000422155176031152,-0.00822677938910726,-0.0255242050049034,0.999640263717282,-0.00126414152153165,-0.0164268282467621,-0.0510660703444637,0,2.13297796500028,static_reference,static_reference
106490,2.2534261,0.0135171350004622,2.23990896499954,Nausicaa,Nausicaa,-0.0264157494007204,-0.102352452761506,1.22836127117083,-0.000426361301860744,-0.00820983289431134,-0.0255085375722664,0.999640801173508,-0.00127142913779333,-0.0163927503303284,-0.0510347553842265,0,2.14973076499954,static_reference,static_reference
106493,2.2689117,0.0137899325004526,2.25512176749955,Nausicaa,Nausicaa,-0.0264173305418539,-0.102352683654088,1.22837276855551,-0.000382320883507042,-0.00823618109710246,-0.0254774103951332,0.999641396057224,-0.00118420114778498,-0.0164477156308599,-0.0509718063994343,0,2.16494356749955,static_reference,static_reference
106496,2.2840282,0.0137047224997445,2.27032347750026,Nausicaa,Nausicaa,-0.0264351890858223,-0.102354782836194,1.22832878755058,-0.000460306208439774,-0.00810742389035311,-0.0254880231312307,0.999642145206433,-0.00133374249570916,-0.0161862874100225,-0.0509940429900488,0,2.18014527750026,static_reference,static_reference
106499,2.2998836,0.0135925100000061,2.28629108999999,Nausicaa,Nausicaa,-0.0263970901592257,-0.102362333253508,1.22833064048737,-0.000493325351501164,-0.00819598974090971,-0.0255573225063131,0.999639637893863,-0.0014054188323852,-0.0163615862771273,-0.0511334324947353,0,2.19611288999999,static_reference,static_reference
106502,2.3148802,0.0136558925002993,2.3012243074997,Nausicaa,Nausicaa,-0.0264049022781912,-0.102360308372991,1.22835158220351,-0.000507322810949469,-0.00817174967316722,-0.0254860224387714,0.999641649688075,-0.00143100369202367,-0.0163125068114424,-0.0509909455149157,0,2.2110461074997,static_reference,static_reference
106505,2.330118,0.0135508300000859,2.31656716999991,Nausicaa,Nausicaa,-0.0264373800275413,-0.102338864688015,1.22830105356319,-0.000562376306145643,-0.00795516868449463,-0.0254450307112105,0.999644411496507,-0.00152938503466479,-0.015876727471805,-0.0509093144834758,0,2.22638896999991,static_reference,static_reference
106508,2.3460713,0.014046200000071,2.33202509999993,Nausicaa,Nausicaa,-0.0264388409046187,-0.102335591466268,1.22829649858108,-0.000516313558196148,-0.00805085119218217,-0.0254122327397813,0.999644504632807,-0.00144162688234212,-0.0160704286554899,-0.0508431758666098,0,2.24184689999993,static_reference,static_reference
106512,2.3621968,0.0138011950002429,2.34839560499976,Nausicaa,Nausicaa,-0.0264373038967868,-0.102334382458854,1.22829269521411,-0.000616266273491978,-0.00808004788713545,-0.0255117792282358,0.999641676883588,-0.00164457820420711,-0.0161235597358439,-0.0510440292927445,0,2.25821740499976,static_reference,static_reference
106515,2.37733,0.0140331199999002,2.3632968800001,Nausicaa,Nausicaa,-0.0264425349062232,-0.102361723949828,1.22834332777427,-0.000417399253939636,-0.00813664652382182,-0.0255312922378909,0.999640822434675,-0.00125014218325112,-0.0162468493051306,-0.0510799846467646,0,2.2731186800001,static_reference,static_reference
106518,2.3923577,0.0138774350004103,2.37848026499959,Nausicaa,Nausicaa,-0.0264076146979181,-0.102342540909527,1.22834691295841,-0.000436987228068417,-0.00821742656096093,-0.0254790359092094,0.999641486570068,-0.00129257967702914,-0.0164074291267532,-0.0509759171414233,0,2.28830206499959,static_reference,static_reference
106521,2.4074526,0.0141910925001622,2.39326150749984,Nausicaa,Nausicaa,-0.0264013436757713,-0.102329096517473,1.22830396903803,-0.000596836915497336,-0.00801748198434488,-0.0255699780000472,0.999640705450415,-0.00160346453616913,-0.01599936305634,-0.051160011243302,0,2.30308330749984,static_reference,static_reference
106524,2.4229825,0.0138780000003365,2.40910449999966,Nausicaa,Nausicaa,-0.0264464440783365,-0.102301895719629,1.22829820274977,-0.000533736016371246,-0.00803280490807088,-0.0254074374030829,0.999644762551069,-0.00147546898461726,-0.0160334679317428,-0.0508338195361211,0,2.31892629999966,static_reference,static_reference
106527,2.4380007,0.0139397700002805,2.42406092999972,Nausicaa,Nausicaa,-0.0264187955384745,-0.102341536291303,1.22836412988788,-0.000489422461148552,-0.00821974973312953,-0.0254896881696747,0.999641171609589,-0.00139772003144207,-0.0164093864657238,-0.0509980954476434,0,2.33388272999972,static_reference,static_reference
106530,2.4540321,0.0138674749999969,2.440164625,Nausicaa,Nausicaa,-0.0264593934543346,-0.102365808014424,1.22833056735412,-0.000412823359444163,-0.0081315411101421,-0.0254531980747608,0.999642857386484,-0.00123946299760195,-0.0162369720722719,-0.0509236452699122,0,2.349986425,static_reference,static_reference
106533,2.4695783,0.0141129225001959,2.4554653774998,Nausicaa,Nausicaa,-0.0264148418036789,-0.102365909083917,1.22835831920922,-0.000391950234712025,-0.00827218111739825,-0.0255648421790598,0.999638862909468,-0.00120673631994194,-0.0165190984402044,-0.0511469766855108,0,2.3652871774998,static_reference,static_reference
106536,2.4856186,0.0137828775004313,2.47183572249957,Nausicaa,Nausicaa,-0.0264427698702642,-0.102344403386456,1.22832942559088,-0.000435078014100305,-0.00815103878039628,-0.0254700830678037,0.999642259081938,-0.00128523056642446,-0.0162748011335604,-0.050957831781393,0,2.38165752249957,static_reference,static_reference
106539,2.5005075,0.0142910149997303,2.48621648500027,Nausicaa,Nausicaa,-0.0264243225379262,-0.102348792643887,1.22833457399959,-0.000498319784441666,-0.0081407179054161,-0.0254637074485639,0.9996424760845,-0.00141105575410694,-0.0162509519552583,-0.0509460802866586,0,2.39603828500027,static_reference,static_reference
106542,2.5165873,0.0136683424996985,2.5029189575003,Nausicaa,Nausicaa,-0.0264080374116177,-0.102345030997582,1.2283686326676,-0.000407025966182145,-0.00817930587718372,-0.0255605653206272,0.999639730495802,-0.00123205865550786,-0.0163326367436265,-0.0511384753975775,0,2.4127407575003,static_reference,static_reference
106545,2.532385,0.0140312475001013,2.5183537524999,Nausicaa,Nausicaa,-0.0264206586978922,-0.102325080177855,1.22832930608665,-0.000498640757074192,-0.00811032551287383,-0.0256320821771083,0.999638419800248,-0.00141287561005892,-0.0161899308160589,-0.0512829099269989,0,2.4281755524999,static_reference,static_reference
106549,2.5484519,0.0145501399999303,2.53390176000007,Nausicaa,Nausicaa,-0.0263858850827183,-0.102334365453039,1.22836041998244,-0.000460992968464463,-0.00813541347080602,-0.0255387812299728,0.999640622016947,-0.00133736848372077,-0.016242147291052,-0.0510956739275639,0,2.44372356000007,static_reference,static_reference
106552,2.5635568,0.0141563000001788,2.54940049999982,Nausicaa,Nausicaa,-0.0263784316758236,-0.102388962011033,1.22833720439811,-0.000457547888516737,-0.00820553626152484,-0.0255709608645792,0.999639227814241,-0.00133459201406318,-0.0163824847808107,-0.0511601566980028,0,2.45922229999982,static_reference,static_reference
106555,2.5783609,0.0145753600000698,2.56378553999993,Nausicaa,Nausicaa,-0.0264199334041237,-0.10236748456373,1.22835289112451,-0.000392652219479741,-0.00819660716574354,-0.0254936268989149,0.999641303889922,-0.00120310669365348,-0.0163680447494746,-0.0510043422174146,0,2.47360733999993,static_reference,static_reference
106558,2.5943831,0.0146406199998021,2.5797424800002,Nausicaa,Nausicaa,-0.0264173200125234,-0.102349249625092,1.22834935972059,-0.000503110317772899,-0.00823560639385933,-0.0255560109739299,0.999639340947741,-0.00142698955339945,-0.0164402978900331,-0.0511310580106333,0,2.4895642800002,static_reference,static_reference
106561,2.6107081,0.0143581550001811,2.59634994499982,Nausicaa,Nausicaa,-0.0264175170487494,-0.102340621533182,1.2283369675919,-0.000455861416493988,-0.00814562083783728,-0.025547214676638,0.999640325754119,-0.0013277667275522,-0.01626280700872,-0.0511124867518789,0,2.50617174499982,static_reference,static_reference
106564,2.6261359,0.0144698574998453,2.61166604250015,Nausicaa,Nausicaa,-0.0263618494312087,-0.102372045889814,1.22834029179539,-0.000505218455527235,-0.0081074504657706,-0.0256277927248792,0.99963854979753,-0.00142581100961542,-0.0161838512464188,-0.0512744272732774,0,2.52148784250015,static_reference,static_reference
106567,2.6416197,0.0142219925001117,2.62739770749989,Nausicaa,Nausicaa,-0.0264314804635128,-0.102364315781484,1.22837283406666,-0.000419881295964449,-0.00821680827080617,-0.025517037121931,0.999640529679572,-0.00125896770516019,-0.0164070169824499,-0.0510516702190345,0,2.53721950749989,static_reference,static_reference
106570,2.6577857,0.0143965274998573,2.64338917250014,Nausicaa,Nausicaa,-0.0264189848035692,-0.102343972604429,1.22835438255665,-0.00047216807589654,-0.00826120125657154,-0.025525727196151,0.9996399186018,-0.00136592865503596,-0.0164930959742649,-0.0510700127586472,0,2.55321097250014,static_reference,static_reference
106574,2.6730681,0.0145692875001208,2.65849881249988,Nausicaa,Nausicaa,-0.0264339893917915,-0.102367841704948,1.22829067082758,-0.000518368465237861,-0.00808666757365173,-0.0255221384241122,0.999641414484188,-0.00144933259012142,-0.0161417768463795,-0.0510631941501056,0,2.56832061249988,static_reference,static_reference
106577,2.6883414,0.0145871924998056,2.67375420750019,Nausicaa,Nausicaa,-0.0264041357864758,-0.102351909524529,1.22837182362738,-0.000433604118922146,-0.00813887374759849,-0.0255286547720197,0.999640864764501,-0.00128261549227217,-0.0162504781457566,-0.0510749752256151,0,2.58357600750019,static_reference,static_reference
106580,2.7029806,0.0141083874997381,2.68887221250026,Nausicaa,Nausicaa,-0.0264385698351953,-0.102313472887726,1.22830211024338,-0.000565283152318029,-0.00809118410706673,-0.0253996832351116,0.999644471442852,-0.00154139296873173,-0.0161486007497125,-0.0508189477354163,0,2.59869401250026,static_reference,static_reference
106583,2.7182326,0.0139598675000375,2.70427273249996,Nausicaa,Nausicaa,-0.0264180510692373,-0.102352233054516,1.22831381820298,-0.00044404896953844,-0.00813294110674393,-0.0254964469184773,0.99964173046347,-0.00130267407008691,-0.0162381248945672,-0.0510106891119846,0,2.61409453249996,static_reference,static_reference
106586,2.7341295,0.013882732500335,2.72024676749967,Nausicaa,Nausicaa,-0.0264262710759591,-0.102370851701604,1.228358554972,-0.000406868055946236,-0.00822290770523814,-0.0254873580307063,0.999641242060306,-0.00123277105743476,-0.016419913188562,-0.0509920860366001,0,2.63006856749967,static_reference,static_reference
106589,2.7500534,0.0140401625003221,2.73601323749968,Nausicaa,Nausicaa,-0.0264209613363555,-0.102378338535898,1.22834508111038,-0.00050353288083497,-0.00822102041560869,-0.0254906897253763,0.999641128613308,-0.00142601582756602,-0.016411206107801,-0.0510003336293186,0,2.64583503749968,static_reference,static_reference
106592,2.7661563,0.0137732675001842,2.75238303249982,Nausicaa,Nausicaa,-0.0263905910789123,-0.102349434578411,1.22837321109779,-0.000432756136360723,-0.00827181520212128,-0.0255558211140107,0.999639079769582,-0.00128816200072514,-0.0165162914936596,-0.0511295994920311,0,2.66220483249982,static_reference,static_reference
106595,2.7812845,0.0138506100000449,2.76743388999996,Nausicaa,Nausicaa,-0.0264162456179356,-0.102354911906458,1.22834907239082,-0.000451720413933846,-0.00821392195677565,-0.0254949210622343,0.999641103814157,-0.00132212134263035,-0.0163996499708154,-0.0510079349273681,0,2.67725568999996,static_reference,static_reference
106598,2.7961548,0.0135726950002127,2.78258210499979,Nausicaa,Nausicaa,-0.0264220901569984,-0.102358878419659,1.22836107970046,-0.000426364628596049,-0.00823802195358218,-0.0255267823387751,0.999640103532729,-0.00127317533272709,-0.0164490885715337,-0.0510713200575171,0,2.69240390499979,static_reference,static_reference
106602,2.812878,0.0137814174998568,2.79909658250014,Nausicaa,Nausicaa,-0.0264044819877158,-0.102332443843945,1.22835194430907,-0.000452242301094786,-0.00818482839288496,-0.0255034029523013,0.99964112585414,-0.00132181883123721,-0.0163414420047268,-0.0510248516856083,0,2.70891838250014,static_reference,static_reference
106605,2.8283162,0.0143319624998587,2.81398423750014,Nausicaa,Nausicaa,-0.0264224272497054,-0.102357608559098,1.22831653203167,-0.000453025307201735,-0.00815872689247761,-0.0255181327401182,0.999640962968716,-0.00132229206882381,-0.0162891948420925,-0.0510542802919714,0,2.72380603750014,static_reference,static_reference
106608,2.8441617,0.0144242600004728,2.82973743999953,Nausicaa,Nausicaa,-0.0264017880274937,-0.102348000024674,1.2283603328427,-0.000443527701787939,-0.00821392743935557,-0.0255027867196024,0.999640906800404,-0.00130586892912849,-0.0164000685196357,-0.0510235387100996,0,2.73955923999953,static_reference,static_reference
106611,2.8602139,0.0145647500001617,2.84564914999984,Nausicaa,Nausicaa,-0.0264194638590404,-0.102363124147191,1.2283672468094,-0.000376734563871724,-0.0082331159962147,-0.0254831894664666,0.999641276121928,-0.0011729697627523,-0.0164418651570232,-0.0509832714953155,0,2.75547094999984,static_reference,static_reference
106614,2.8756515,0.0145101124999444,2.86114138750006,Nausicaa,Nausicaa,-0.0264026222992776,-0.102315884478151,1.2283639206115,-0.000467393943616807,-0.00820346413201412,-0.025627401311333,0.99963779491432,-0.00135509838757124,-0.0163777615677865,-0.0512732425499276,0,2.77096318750006,static_reference,static_reference
106617,2.8917123,0.0143423625001574,2.87736993749984,Nausicaa,Nausicaa,-0.026417596288691,-0.102365247146674,1.22835315332129,-0.000429534003279622,-0.00823095933172408,-0.0255102235016265,0.999640583062691,-0.00127887952694959,-0.0164348267950113,-0.0510382253630709,0,2.78719173749984,static_reference,static_reference
106620,2.9077383,0.0149479549998597,2.89279034500014,Nausicaa,Nausicaa,-0.0263997929429699,-0.10236426996527,1.22834159439757,-0.000515542417907086,-0.00818521530600452,-0.0255069183845256,0.999641002350811,-0.00144846776158716,-0.0163389808414151,-0.0510329198533643,0,2.80261214500014,static_reference,static_reference
106624,2.9237782,0.0146212249998839,2.90915697500012,Nausicaa,Nausicaa,-0.0264222346780318,-0.102343130866101,1.22835034449235,-0.000457620760566022,-0.00808213056428938,-0.0255809265081966,0.999639978166021,-0.00132858213322742,-0.0161357290942245,-0.0511798305853708,0,2.81897877500012,static_reference,static_reference
106627,2.9395182,0.0144382624999468,2.92507993750005,Nausicaa,Nausicaa,-0.0264146343579067,-0.102335724831901,1.22836792253105,-0.000389706748038813,-0.00820374986780956,-0.0254670542742795,0.999641923772382,-0.00119714602418134,-0.0163825080318902,-0.0509511407167182,0,2.83490173750005,static_reference,static_reference
106630,2.9546648,0.0145365174999161,2.94012828250008,Nausicaa,Nausicaa,-0.0264371106732934,-0.102324530147515,1.22830775304766,-0.000453910406283283,-0.00805636953142292,-0.0254761109864282,0.999642864549297,-0.00131815741630464,-0.0160845504261826,-0.0509699958016008,0,2.84995008250008,static_reference,static_reference
