frame_number,t_read_host_s,vicon_latency_s,t_capture_host_s,subject_name,segment_name,x_m,y_m,z_m,qx,qy,qz,qw,roll_rad,pitch_rad,yaw_rad,is_occluded
163360,9.9773682,0.0162275550008677,9.96114064499913,Aileron_L,Aileron_L,0.224032082322556,0.0353602262487962,1.19169136164361,0.00549856545415296,-0.0183721295597724,0.999765341098502,-0.0100743918715176,0.0366354072568703,0.0113649710522721,-3.12164802843912,0
163360,9.9773682,0.0162275550008677,9.96114064499913,Aileron_R,Aileron_R,-0.207702072120108,0.0294295434113105,1.1997982738768,0.00375828245628499,-0.0661148262554399,0.997801622979032,-0.0025741489080299,0.132309359720807,0.00784049981477507,-3.13695247078232,0
163360,9.9773682,0.0162275550008677,9.96114064499913,Rudder,Rudder,-3.5087419216671e-05,0.347777454675989,1.23727932881679,0.00554316282340281,0.00986884701220652,0.980533963322194,-0.196023024097254,-0.0215288451060015,0.00700153355787791,-2.74689045740698,0
163360,9.9773682,0.0162275550008677,9.96114064499913,Elevator,Elevator,0.000291828723169675,0.360286838354036,1.15854118214563,0.00384290939465149,0.0287767816050409,0.99953456261141,-0.00936947346749943,-0.0576321557452397,0.00714305568191068,-3.12263963715467,0
163390,10.1270542,0.0164639700046162,10.1105902299954,Aileron_L,Aileron_L,0.224045075931987,0.0353574953054546,1.19161110282672,0.00606102746480495,-0.0208514659433029,0.999714806068002,-0.00993915703187952,0.0415858059929231,0.0125334179178282,-3.12196997094494,0
163390,10.1270542,0.0164639700046162,10.1105902299954,Aileron_R,Aileron_R,-0.207760421375119,0.0294232615246979,1.19986521442296,0.00415376593951805,-0.0624919813388323,0.998032640057199,-0.00288926934090965,0.125044352784718,0.00865240826388501,-3.13634441695749,0
163390,10.1270542,0.0164639700046162,10.1105902299954,Rudder,Rudder,-5.5181237659037e-05,0.347812775275927,1.23728057096072,0.00528769950801245,0.010554599727645,0.977495604176469,-0.210625222787259,-0.0228639842070385,0.00589131029119779,-2.71706629952185,0
163390,10.1270542,0.0164639700046162,10.1105902299954,Elevator,Elevator,0.00030922762642735,0.360285933089663,1.15855764003546,0.0036958063306265,0.0425947554673801,0.999042309690218,-0.00930006833708061,-0.0852818573013469,0.00659231326081189,-3.12269395056309,0
163394,10.144295,0.0159581949987976,10.1283368050012,Aileron_L,Aileron_L,0.224055274537273,0.0353575327532739,1.19168134747226,0.00528436463582425,-0.0175558971728949,0.999778204037083,-0.0103638167310781,0.0350037125870408,0.0109304950253583,-3.12105248975078,0
163394,10.144295,0.0159581949987976,10.1283368050012,Aileron_R,Aileron_R,-0.207726003494714,0.0294801526369872,1.19985989345283,0.00376249280534725,-0.0781961461101371,0.996929819705691,-0.00146320299013559,0.156544388224124,0.0077307932228923,-3.13926358537393,0
163394,10.144295,0.0159581949987976,10.1283368050012,Rudder,Rudder,-9.74602589071578e-05,0.347845096563796,1.23729221069359,0.00523362664647275,0.0107584865302484,0.975702201292752,-0.218774035278827,-0.0232865786398248,0.00550559486981806,-2.70038066631745,0
163394,10.144295,0.0159581949987976,10.1283368050012,Elevator,Elevator,0.000291975204554605,0.360312901235575,1.15856051911816,0.00353787622821226,0.045840413099472,0.998898307327426,-0.00939742395911057,-0.0917768661476382,0.0062064334041123,-3.12249262726556,0
163397,10.1604107,0.0152719500030302,10.145138749997,Aileron_L,Aileron_L,0.224063375968235,0.0353788856878725,1.19165988930672,0.00493901459806695,-0.0106136777076425,0.99988262348949,-0.00988408944182603,0.0211298756147398,0.0100868538733916,-3.12192936990755,0
163397,10.1604107,0.0152719500030302,10.145138749997,Aileron_R,Aileron_R,-0.207693891064398,0.0294111536536742,1.19984851074086,0.00366112538435256,-0.0808534020263603,0.996717751294166,-0.00174579402681609,0.161873898701021,0.00758059669672661,-3.13870446768138,0
163397,10.1604107,0.0152719500030302,10.145138749997,Rudder,Rudder,-6.10292536350983e-05,0.347834285864817,1.23727350407832,0.00558294712017998,0.0102242746336738,0.97978697487476,-0.199704228236248,-0.0222674620388285,0.00685658971402683,-2.73937653125237,0
163397,10.1604107,0.0152719500030302,10.145138749997,Elevator,Elevator,0.000272492861443621,0.360265538652675,1.1585227265115,0.00373205951385037,0.0344489811154329,0.999355801562784,-0.00934458745475093,-0.068979618196945,0.00681554038569368,-3.12265681554601,0
163400,10.1751868,0.0152901375033728,10.1598966624966,Aileron_L,Aileron_L,0.224008167393049,0.0352953295039265,1.19158525239819,0.00567701006406841,-0.0271600794397756,0.999558744630442,-0.0106027201402798,0.0542062006419453,0.0119252341966869,-3.12070194159716,0
163400,10.1751868,0.0152901375033728,10.1598966624966,Aileron_R,Aileron_R,-0.207803546286461,0.029417223133686,1.1998664639377,0.00414299179040862,-0.0730857574741829,0.997314370581081,-0.00231385088361154,0.146286362231941,0.00860205567354785,-3.13758280840173,0
163400,10.1751868,0.0152901375033728,10.1598966624966,Rudder,Rudder,-7.5909560867359e-05,0.347801883043617,1.23728529462175,0.00531080715259328,0.010548419567462,0.979640927621269,-0.200410027447123,-0.0227984149594354,0.00617738926895371,-2.73794085678663,0
163400,10.1751868,0.0152901375033728,10.1598966624966,Elevator,Elevator,0.000299228119721819,0.360272116420564,1.15852265982308,0.00335561242017212,0.0468033758983602,0.99885561261184,-0.00925467577113735,-0.0937003846486636,0.005837277611068,-3.12278894751907,0
163403,10.1878228,0.0151494725023254,10.1726733274977,Aileron_L,Aileron_L,0.224029193197771,0.0353643602747197,1.19169433844688,0.00539539126783969,-0.0156780661632583,0.999813063632994,-0.00994614414000697,0.0312499551600878,0.0111008659482338,-3.12187076898412,0
163403,10.1878228,0.0151494725023254,10.1726733274977,Aileron_R,Aileron_R,-0.207713987227045,0.0294453485429632,1.19982780743788,0.00366721726738836,-0.0673306588814603,0.997720327554751,-0.00269849516272923,0.134745886365311,0.00768117287290018,-3.13670163515892,0
163403,10.1878228,0.0151494725023254,10.1726733274977,Rudder,Rudder,-3.10771151142157e-05,0.347798938521126,1.23728896730521,0.00569618399991323,0.010338038551824,0.977474323702759,-0.210724049288578,-0.0226134271734153,0.00677885243312103,-2.71685480443581,0
163403,10.1878228,0.0151494725023254,10.1726733274977,Elevator,Elevator,0.000304431964286327,0.360271301565371,1.15855896301536,0.00379043902982707,0.0322219733964385,0.999429888015896,-0.00934215943635898,-0.0645243606435569,0.00697456703025756,-3.12267312720067,0
163405,10.2011546,0.0150091725035778,10.1861454274964,Aileron_L,Aileron_L,0.224067781626383,0.0353321566441904,1.19162541955594,0.00490563171261899,-0.0248836610362945,0.999615091762184,-0.0112430650719338,0.0496609350342168,0.0103672099382741,-3.11935629139604,0
163405,10.2011546,0.0150091725035778,10.1861454274964,Aileron_R,Aileron_R,-0.207674939294197,0.0294786364509746,1.19983954397816,0.00368725982100055,-0.0742258567282481,0.99723278725998,-0.00192206182539733,0.148577102115914,0.00763952045839182,-3.13830644567597,0
163405,10.2011546,0.0150091725035778,10.1861454274964,Rudder,Rudder,-4.07794120820446e-05,0.34781010876618,1.23728253152621,0.00571774230911885,0.0110760827210281,0.973261824672816,-0.229360084689956,-0.0241855008729733,0.00604893497167344,-2.67864250448056,0
163405,10.2011546,0.0150091725035778,10.1861454274964,Elevator,Elevator,0.000312479647195256,0.360280042468317,1.15855115730902,0.00368743404125971,0.0377876724734016,0.999235995331791,-0.00926931888113361,-0.0756598097346635,0.00666875110595485,-3.12278797396382,0
163408,10.2146317,0.0153748100049463,10.1992568899951,Aileron_L,Aileron_L,0.22406002806743,0.0354316878549653,1.19168138246743,0.00551766245495365,-0.0210169926371753,0.99970961172206,-0.0104179485528561,0.0419218487050463,0.0114702797943079,-3.12099192415289,0
163408,10.2146317,0.0153748100049463,10.1992568899951,Aileron_R,Aileron_R,-0.207722301340819,0.0294936075900069,1.19982012338573,0.00390752473877572,-0.0704898794237703,0.997502305135489,-0.00224931069957243,0.141082239215852,0.0081127261399488,-3.13765601055514,0
163408,10.2146317,0.0153748100049463,10.1992568899951,Rudder,Rudder,-2.27285220126916e-05,0.347819387446085,1.23726799068452,0.0055675018649532,0.00938617504740716,0.983584042075861,-0.180120334262056,-0.0204718411747792,0.00757100233142675,-2.77927577385971,0
163408,10.2146317,0.0153748100049463,10.1992568899951,Elevator,Elevator,0.000302857739905647,0.360318456537298,1.15855977143158,0.0037174800079103,0.0370683090908729,0.999262222563953,-0.00933441803671377,-0.0742211317611633,0.00673750345768303,-3.12266042893294,0
163411,10.2273643,0.0153899099980068,10.211974390002,Aileron_L,Aileron_L,0.224051180567344,0.0354015765012451,1.19162938970872,0.00499222139908874,-0.0194143450388367,0.999744071181388,-0.0104858509373032,0.0387258254595491,0.0103892262420561,-3.12081754488664,0
163411,10.2273643,0.0153899099980068,10.211974390002,Aileron_R,Aileron_R,-0.207794100393878,0.0294700087939961,1.19986966790882,0.00384294790992556,-0.0658384220033638,0.997819807008076,-0.00248328045819886,0.131755750125513,0.00799621482915997,-3.13714279104202,0
163411,10.2273643,0.0153899099980068,10.211974390002,Rudder,Rudder,-8.03114250914021e-05,0.347856889111053,1.23728165342743,0.00510758718376983,0.0106326813582306,0.9801932349341,-0.197691883570669,-0.0228660000302152,0.00580888786683857,-2.74349262709097,0
163411,10.2273643,0.0153899099980068,10.211974390002,Elevator,Elevator,0.000276273025941525,0.360302339328293,1.15845501806618,0.00333010152086042,0.0523494397533356,0.998581315174467,-0.00915442875363034,-0.104804767949563,0.0056923266206657,-3.12295973266185,0
163414,10.2412871,0.0151457100018677,10.2261413899981,Aileron_L,Aileron_L,0.224056686292191,0.0353486777535827,1.19167315116197,0.00526755200126572,-0.00965848241212766,0.999891882279524,-0.00975655497190235,0.0192143767823031,0.0107226374715776,-3.1221810715784,0
163414,10.2412871,0.0151457100018677,10.2261413899981,Aileron_R,Aileron_R,-0.207745236550398,0.0294408429701687,1.19988552528394,0.00382079136863704,-0.0670992971194514,0.997736296610708,-0.00231696028072772,0.134284531919599,0.00793530055250095,-3.13748182667623,0
163414,10.2412871,0.0151457100018677,10.2261413899981,Rudder,Rudder,-4.340461360098e-05,0.347803464477078,1.23726092097226,0.0055683051838023,0.0100392618320522,0.979695903066741,-0.200160297545466,-0.0219022257600903,0.00689162283250601,-2.73844719904131,0
163414,10.2412871,0.0151457100018677,10.2261413899981,Elevator,Elevator,0.000288439541215353,0.360272461966169,1.15847531590458,0.00307603356532031,0.0524370233493932,0.998574030969899,-0.00952897015876654,-0.104977214449918,0.0051439754973362,-3.12223782877128,0
163416,10.2558065,0.0159662725000141,10.2398402275,Aileron_L,Aileron_L,0.224037504034373,0.0353524049190286,1.19163180312406,0.00505232874546601,-0.0169668908408464,0.999791027627039,-0.0102225078093208,0.0338316957678822,0.0104496244177284,-3.12132085992977,0
163416,10.2558065,0.0159662725000141,10.2398402275,Aileron_R,Aileron_R,-0.207757807180379,0.029457282857304,1.19985894909627,0.00395545590512,-0.0723949165417153,0.99736576759182,-0.0022036477668063,0.144902402425942,0.0082092306273409,-3.13776953956236,0
163416,10.2558065,0.0159662725000141,10.2398402275,Rudder,Rudder,-0.000108924443729546,0.347828400517704,1.23730765203666,0.00482340729159817,0.0107761458040981,0.977342360803114,-0.211335087487866,-0.0231050080041583,0.00487350439816977,-2.71562481260532,0
163416,10.2558065,0.0159662725000141,10.2398402275,Elevator,Elevator,0.000289042114016207,0.360289924267816,1.15852688504724,0.0038110708506332,0.0371291390944608,0.999259228362572,-0.00937535606327981,-0.0743449760101,0.00692035287350883,-3.12257122543045,0
163419,10.2695898,0.0158808725045725,10.2537089274954,Aileron_L,Aileron_L,0.224048018306407,0.0353782761233455,1.19167510838287,0.00556037396461046,-0.0136924809064358,0.999845115398963,-0.00955737520637224,0.0272795849704583,0.0113809995414881,-3.12263077015371,0
163419,10.2695898,0.0158808725045725,10.2537089274954,Aileron_R,Aileron_R,-0.207734887746271,0.0294121139805669,1.19990622327169,0.0039191229183323,-0.0625381185222574,0.998030389108391,-0.00299443206655629,0.125136944180384,0.00819743164530103,-3.136105562443,0
163419,10.2695898,0.0158808725045725,10.2537089274954,Rudder,Rudder,-5.32639235093324e-05,0.347833069913584,1.23731429556239,0.00545028925250067,0.0108542215490629,0.976520657294571,-0.215081115160319,-0.0235458476520174,0.00597559949916697,-2.7079400308297,0
163419,10.2695898,0.0158808725045725,10.2537089274954,Elevator,Elevator,0.000285026050195088,0.360285536074281,1.15853714620821,0.00371090990072542,0.0423352844827501,0.999054622973884,-0.0091549522109392,-0.0847617955116991,0.0066396971566737,-3.122984370034,0
163422,10.2843001,0.0162358850012695,10.2680642149987,Aileron_L,Aileron_L,0.224060658422683,0.0353953157923928,1.19164416933414,0.00512508136315898,-0.0182578776858438,0.999767099837346,-0.0103019185714529,0.0364117543250175,0.0106241576619775,-3.12117819134819,0
163422,10.2843001,0.0162358850012695,10.2680642149987,Aileron_R,Aileron_R,-0.207717403234799,0.0294421745586079,1.19990711612014,0.00416108263834936,-0.0418070906783453,0.999105580101407,-0.00478459721617585,0.0836000937431029,0.00871489226047188,-3.1323794633532,0
163422,10.2843001,0.0162358850012695,10.2680642149987,Rudder,Rudder,-4.26055427342877e-05,0.347844065171825,1.23732054661037,0.00550862239582148,0.0107427639660217,0.980461226300599,-0.196341620200091,-0.0232314637851383,0.00658352553181435,-2.74623595756273,0
163422,10.2843001,0.0162358850012695,10.2680642149987,Elevator,Elevator,0.000317262127158336,0.360261481410703,1.15851374945207,0.00352742451859414,0.0565499874163804,0.998351490082941,-0.00916288429726123,-0.113221957209983,0.00600693319004788,-3.12289671716009,0
163425,10.2980363,0.0169809100052451,10.2810553899948,Aileron_L,Aileron_L,0.224053166837888,0.0353646823709653,1.19165302662281,0.00502352137725999,-0.0134751560553043,0.99984555077101,-0.0101024257320933,0.0268493049157155,0.0103179375964171,-3.12152389293537,0
163425,10.2980363,0.0169809100052451,10.2810553899948,Aileron_R,Aileron_R,-0.207785706961723,0.0294377129112323,1.1999046084261,0.00390868577556046,-0.0735495634295589,0.997282209432647,-0.00183810880191392,0.147220981239921,0.00806659725424223,-3.13850128593952,0
163425,10.2980363,0.0169809100052451,10.2810553899948,Rudder,Rudder,-4.04669092556773e-05,0.347830902177294,1.23726411382137,0.00561033684930266,0.0105723101186318,0.979380832314031,-0.201667884590158,-0.0229740256993074,0.00672517260652962,-2.73536490959669,0
163425,10.2980363,0.0169809100052451,10.2810553899948,Elevator,Elevator,0.000288952684730069,0.360276680801536,1.15852968387237,0.00353753549717251,0.0505021189310805,0.998674186948502,-0.00932148855202194,-0.101110360509357,0.00612421920842726,-3.12261559264573,0
163428,10.3130268,0.0168293574956653,10.2961974425043,Aileron_L,Aileron_L,0.224025010292836,0.0353448996573002,1.19158744286143,0.00587390088511754,-0.040422013820879,0.999099220494639,-0.0115024212260233,0.0807302097088411,0.0126674604277237,-3.11907969547349,0
163428,10.3130268,0.0168293574956653,10.2961974425043,Aileron_R,Aileron_R,-0.207711120034894,0.0294740882504614,1.19988710937207,0.00418753458119637,-0.0631274943977419,0.997993194203549,-0.00263975919189279,0.126319944335427,0.00869165422679091,-3.13685223049611,0
163428,10.3130268,0.0168293574956653,10.2961974425043,Rudder,Rudder,-7.76965019437066e-05,0.347850822266226,1.2373304915004,0.00513022898379085,0.0107156334066788,0.978807025350396,-0.20443987643309,-0.0230771393532924,0.00566163304922028,-2.72971491431021,0
163428,10.3130268,0.0168293574956653,10.2961974425043,Elevator,Elevator,0.000298963113881892,0.360286187482012,1.15852729357313,0.00356119474618259,0.0330179487383087,0.999403411431577,-0.00948441732638816,-0.0661135983879221,0.00649187394531221,-3.12239838582628,0
163430,10.3267642,0.0168545275075964,10.3099096724924,Aileron_L,Aileron_L,0.224032908820212,0.0353563566524118,1.19162808861246,0.00610773943023692,-0.0306729376631832,0.999452803927081,-0.010768432404845,0.0612240740156898,0.0128697487775835,-3.12043892898439,0
163430,10.3267642,0.0168545275075964,10.3099096724924,Aileron_R,Aileron_R,-0.207726225199325,0.0294072296626567,1.19985162712549,0.00383198121069271,-0.0700436095337637,0.997533303840503,-0.00255272648996735,0.140185277266077,0.00800274753074458,-3.13703644414112,0
163430,10.3267642,0.0168545275075964,10.3099096724924,Rudder,Rudder,-5.36728015076919e-05,0.347860492774968,1.23729593465048,0.00604152354945734,0.011376290396693,0.974220726312903,-0.225228897862534,-0.0248906070360144,0.00664706517345374,-2.68711563573589,0
163430,10.3267642,0.0168545275075964,10.3099096724924,Elevator,Elevator,0.000282548194897485,0.360300241216609,1.15851012360866,0.00334218987349477,0.0488488036555192,0.998757875682975,-0.00923741898504003,-0.0977954391050497,0.00577363526096464,-3.12281282285373,0
163433,10.3392392,0.0168012025063236,10.3224379974937,Aileron_L,Aileron_L,0.224018828082237,0.0353344827751396,1.19162606336722,0.00616959101508174,-0.0277996289357261,0.999540725343838,-0.0103660579227505,0.0554788903012422,0.0129102187135697,-3.12120997436028,0
163433,10.3392392,0.0168012025063236,10.3224379974937,Aileron_R,Aileron_R,-0.207733176299272,0.0294506308835125,1.19988932058366,0.00419082643772688,-0.0434824447440788,0.999035417282344,-0.00446642903674563,0.0869564467222823,0.00876210270269515,-3.13303243361321,0
163433,10.3392392,0.0168012025063236,10.3224379974937,Rudder,Rudder,-4.98258270740699e-05,0.347824220299633,1.23725952949222,0.00553590909677862,0.0106446603467521,0.978369478602369,-0.206516847389997,-0.0231178764085301,0.00643577002776055,-2.72546043038851,0
163433,10.3392392,0.0168012025063236,10.3224379974937,Elevator,Elevator,0.000306092363447105,0.360300710281812,1.1585685721518,0.00373099745675177,0.0335111674436985,0.999386581746541,-0.00946263914048164,-0.0671037422619393,0.00682326236510237,-3.12242730489727,0
163435,10.3504064,0.0169549925021119,10.3334514074979,Aileron_L,Aileron_L,0.224065383569845,0.0353523199696955,1.19161751922832,0.00497938158771974,-0.0204867679984834,0.999720333070986,-0.0107123172291068,0.0408689792074943,0.0103950867650628,-3.12037529562016,0
163435,10.3504064,0.0169549925021119,10.3334514074979,Aileron_R,Aileron_R,-0.207769026134126,0.0294534133107699,1.19990190153186,0.00415345298298107,-0.0591587893114661,0.998235270491317,-0.00305470500161883,0.118364013816793,0.00865377983324688,-3.13598521219406,0
163435,10.3504064,0.0169549925021119,10.3334514074979,Rudder,Rudder,-4.52264458376375e-05,0.347884593539076,1.23731115679817,0.00547920381590524,0.0110115247921824,0.980139672843851,-0.197926618636415,-0.0237573436888478,0.00638186565507524,-2.74300181233707,0
163435,10.3504064,0.0169549925021119,10.3334514074979,Elevator,Elevator,0.000288980307822844,0.360299327037766,1.15853358031795,0.00374200011822721,0.0428071278957883,0.9990332605486,-0.00927855344667879,-0.0857077347701834,0.00668243844393054,-3.12273157868082,0
163438,10.3633736,0.01669703500403,10.346676564996,Aileron_L,Aileron_L,0.224091365819873,0.0353923196511311,1.19163492079892,0.005092719294512,-0.0316669455424515,0.999417811932914,-0.0116321090703421,0.0632244183781261,0.0109164322916756,-3.11866114538679,0
163438,10.3633736,0.01669703500403,10.346676564996,Aileron_R,Aileron_R,-0.207745784880825,0.0294326527080086,1.199941200028,0.00367488829246509,-0.0752232920368778,0.997157615852292,-0.0021542235133714,0.150575875720945,0.00765305597082004,-3.13784920884738,0
163438,10.3633736,0.01669703500403,10.346676564996,Rudder,Rudder,-1.70870640903009e-05,0.347855036453421,1.23732796881036,0.00547135880542396,0.0104140333576157,0.979756898664672,-0.199845019104889,-0.0225956983510876,0.0065588647042888,-2.73909082737508,0
163438,10.3633736,0.01669703500403,10.346676564996,Elevator,Elevator,0.000327343157048107,0.360292916664406,1.15852213544342,0.00314239121620644,0.0541298193431554,0.998484322330898,-0.00944172096220866,-0.108368366570418,0.00525312358830597,-3.12239619491607,0
163440,10.3768566,0.0168266149978725,10.3600299850021,Aileron_L,Aileron_L,0.224025411323289,0.0353701403197735,1.19162927870212,0.00508204388583752,-0.0148443391806484,0.999826223463992,-0.0100668415087874,0.0295871342366281,0.0104613835269211,-3.12161092552164,0
163440,10.3768566,0.0168266149978725,10.3600299850021,Aileron_R,Aileron_R,-0.20782013707209,0.0294894745837416,1.19993068898898,0.004347452416868,-0.0417986094135214,0.999106190543237,-0.00456025512015081,0.0835835687926243,0.00906848218493141,-3.13284325889223,0
163440,10.3768566,0.0168266149978725,10.3600299850021,Rudder,Rudder,-5.59494618811058e-05,0.347857440437022,1.23727674275442,0.00548149632161233,0.0106762727292796,0.976431929671431,-0.21549166368287,-0.0232142580038876,0.00610335840948223,-2.70709943070761,0
163440,10.3768566,0.0168266149978725,10.3600299850021,Elevator,Elevator,0.00030298135172688,0.360329697970643,1.15855995838276,0.00411197262208259,0.0268681677373746,0.999584974324423,-0.00954318334905356,-0.0538200928867806,0.00770779271364803,-3.12229147420636,0
163443,10.3901509,0.016166032505157,10.3739848674948,Aileron_L,Aileron_L,0.224098351515727,0.0353595235534091,1.19164595457144,0.00480881352900973,-0.0113081266286554,0.999872766296191,-0.0101711751433111,0.0225185477733971,0.00984659635744752,-3.12135928756258,0
163443,10.3901509,0.016166032505157,10.3739848674948,Aileron_R,Aileron_R,-0.207754640245515,0.0294551148780172,1.19982156256135,0.00383415271739531,-0.0676144122969696,0.997700588113254,-0.00266964438483481,0.13531429099913,0.00801177142466606,-3.13678395714709,0
163443,10.3901509,0.016166032505157,10.3739848674948,Rudder,Rudder,-2.88644354613008e-05,0.347832572694221,1.23729150774114,0.00590657535371393,0.0105174880209633,0.977749894009977,-0.209426931355064,-0.0230435649787046,0.00714507716360025,-2.71950144255461,0
163443,10.3901509,0.016166032505157,10.3739848674948,Elevator,Elevator,0.000305841325949911,0.36029678121854,1.15855824310923,0.00379663552476973,0.0394390522320748,0.999172062302925,-0.00923778279928618,-0.0789668427141907,0.00685837926409051,-3.12283137138405,0
163445,10.4019423,0.0161601500017737,10.3857821499982,Aileron_L,Aileron_L,0.224034000919648,0.0353606727073356,1.19164078604748,0.0051671470701606,-0.0193156517559571,0.999747193213638,-0.0102837663261724,0.0385270091653856,0.0107291627054439,-3.12122735438675,0
163445,10.4019423,0.0161601500017737,10.3857821499982,Aileron_R,Aileron_R,-0.207790662662443,0.0294366240989739,1.19988832476884,0.00415190773321587,-0.0569107622997467,0.998365141019159,-0.00331240010130586,0.113858047671067,0.00866737084862299,-3.13545099117082,0
163445,10.4019423,0.0161601500017737,10.3857821499982,Rudder,Rudder,-5.41651204351545e-05,0.347854098971369,1.23730520876485,0.00585479025204207,0.0114973756765528,0.975732345608322,-0.218586187846667,-0.0249993909255768,0.00639912508524362,-2.70074459574808,0
163445,10.4019423,0.0161601500017737,10.3857821499982,Elevator,Elevator,0.000272503149526371,0.360272405171005,1.15848981896621,0.00338646629713409,0.0485961609639745,0.998770549767913,-0.00918334916477615,-0.0972901101656411,0.00587208832858568,-3.12291799031015,0
163448,10.4168915,0.0164863500012251,10.4004051499988,Aileron_L,Aileron_L,0.22403098981385,0.0353247602549508,1.1916383660496,0.00520772406982617,-0.0325215252365738,0.99939291062289,-0.0113595863924835,0.0649349044499486,0.0111482181032729,-3.1192227440143,0
163448,10.4168915,0.0164863500012251,10.4004051499988,Aileron_R,Aileron_R,-0.207732411671386,0.0294242195049111,1.19991090752443,0.00383103940275919,-0.062149907105121,0.998055259128488,-0.00290032927216871,0.124360137374129,0.00800777401945301,-3.13627927795115,0
163448,10.4168915,0.0164863500012251,10.4004051499988,Rudder,Rudder,-5.81432446177264e-05,0.347827177714359,1.23728567025365,0.00552018611190902,0.010434816512892,0.97924834999337,-0.202319824003715,-0.0226726744210815,0.0065889734788276,-2.73403685022572,0
163448,10.4168915,0.0164863500012251,10.4004051499988,Elevator,Elevator,0.000280044936902234,0.360257160832875,1.15853353167059,0.00378780922914469,0.0407037938192598,0.999120978337877,-0.00928031869748445,-0.0814984110658328,0.00681352368638253,-3.12273842033029,0
163451,10.4295553,0.0166167549990415,10.412938545001,Aileron_L,Aileron_L,0.224056798851176,0.0353433534279709,1.19161059692961,0.00486784708807189,-0.0216863189790747,0.99969285727895,-0.0109635185645054,0.0432683322351579,0.0102083979542865,-3.1198806454987,0
163451,10.4295553,0.0166167549990415,10.412938545001,Aileron_R,Aileron_R,-0.207762657175128,0.0294645587620552,1.19983117889948,0.00370019817103316,-0.0843784338642086,0.99642657200764,-0.000821601619630873,0.168955173978356,0.00751267314380789,-3.14057972731432,0
163451,10.4295553,0.0166167549990415,10.412938545001,Rudder,Rudder,-6.72014363911129e-05,0.347871161392732,1.23727013459604,0.00555146418768203,0.0104222836302108,0.981088208434462,-0.193200632815117,-0.0225979077964594,0.00686582246449129,-2.75264121607468,0
163451,10.4295553,0.0166167549990415,10.412938545001,Elevator,Elevator,0.000294768359904229,0.360293786136373,1.15853061778494,0.00329296997080843,0.0589383174488839,0.99821369265138,-0.00921167131207768,-0.1180021748316,0.00548836216612469,-3.12281266977748,0
163453,10.4409036,0.0163393250015493,10.4245642749985,Aileron_L,Aileron_L,0.224055042812836,0.0354159289253374,1.19169485282467,0.00546677385352977,-0.00926136696914873,0.99989744354059,-0.00945747675066218,0.0184196083610299,0.0111078331466905,-3.12277862903677,0
163453,10.4409036,0.0163393250015493,10.4245642749985,Aileron_R,Aileron_R,-0.207775311097342,0.0294682396234878,1.19986933649607,0.00363871909992122,-0.0803582330439586,0.996758437527689,-0.00138972037673932,0.160882991881071,0.00747726855199817,-3.13940696180153,0
163453,10.4409036,0.0163393250015493,10.4245642749985,Rudder,Rudder,-6.59522055915494e-05,0.347849901708447,1.23729910810307,0.00514376977586039,0.0104042706196253,0.979478394591797,-0.201214729364532,-0.0224537971533715,0.00588947177734995,-2.73630314427928,0
163453,10.4409036,0.0163393250015493,10.4245642749985,Elevator,Elevator,0.000310155976379734,0.360323008480326,1.15853644733675,0.00325565420536828,0.0508073514536702,0.998659897122758,-0.00929643118194887,-0.101715932701349,0.00555795710994197,-3.12269246811125,0
163456,10.4533686,0.0165588675059912,10.436809732494,Aileron_L,Aileron_L,0.224034884955688,0.0354048076646089,1.1916336262143,0.00620492567750111,-0.0383981768794007,0.999178841331653,-0.0113455693912348,0.0766743459294022,0.0132713488326918,-3.11939288527513,0
163456,10.4533686,0.0165588675059912,10.436809732494,Aileron_R,Aileron_R,-0.207784535301209,0.0294593242912489,1.19990512719825,0.00421836930817922,-0.058447263901425,0.99827592195399,-0.00336249159533397,0.116935469160193,0.00881536406196642,-3.13537208726655,0
163456,10.4533686,0.0165588675059912,10.436809732494,Rudder,Rudder,-9.02800934562862e-05,0.347815136786439,1.23721872930152,0.00516082728600927,0.0103311159603638,0.979584971224885,-0.200698575119703,-0.0223142018039424,0.00596409254910444,-2.73735687759318,0
163456,10.4533686,0.0165588675059912,10.436809732494,Elevator,Elevator,0.000338135525125812,0.360325703887137,1.15855982481119,0.00372992171153808,0.0376352380456987,0.999241798033141,-0.00924692407042237,-0.0753554022798435,0.00675821842310765,-3.1228305453558,0
163458,10.4661911,0.0163261300019947,10.449864969998,Aileron_L,Aileron_L,0.224068250349532,0.0353274873402049,1.19160954619666,0.00489530446799348,-0.021644248388207,0.999694246427521,-0.0109076196113403,0.0431841620359451,0.0102599698837753,-3.11999317861437,0
163458,10.4661911,0.0163261300019947,10.449864969998,Aileron_R,Aileron_R,-0.207786928233612,0.0294734272146338,1.19982561094268,0.00390406185373751,-0.0725363761186009,0.997355873389471,-0.0021199660725246,0.145186882928509,0.00809511576567202,-3.13793017717051,0
163458,10.4661911,0.0163261300019947,10.449864969998,Rudder,Rudder,-1.87698130258935e-05,0.347804902310458,1.23728417949272,0.00518428397617303,0.00941703889972037,0.984388779695135,-0.17567917630823,-0.0203634881067047,0.00689800138327173,-2.78831052994923,0
163458,10.4661911,0.0163261300019947,10.449864969998,Elevator,Elevator,0.00029706906473164,0.360295617913644,1.15853520487141,0.00369633268142399,0.0347188778318897,0.999346651547678,-0.0093384520798165,-0.0695189848974983,0.00673944524020021,-3.12266972790659,0
163461,10.4792015,0.0162675249999737,10.462933975,Aileron_L,Aileron_L,0.22403544593933,0.035343328204064,1.1916335215168,0.00505080605593664,-0.0188279588860374,0.999756570983708,-0.0103342197223477,0.037553249967121,0.0104884899171214,-3.12111688127649,0
163461,10.4792015,0.0162675249999737,10.462933975,Aileron_R,Aileron_R,-0.207777784108128,0.0294114289348242,1.19990017716781,0.00417684432713378,-0.0729861362203874,0.997322678164268,-0.00174742963742087,0.146091335681085,0.00858650492700854,-3.13871674465489,0
163461,10.4792015,0.0162675249999737,10.462933975,Rudder,Rudder,-4.11132777792482e-05,0.347801703528339,1.23726358598415,0.00549215639830695,0.0100234009688065,0.979469429911524,-0.201268486156946,-0.0218482577009417,0.00672405978361331,-2.73618688071998,0
163461,10.4792015,0.0162675249999737,10.462933975,Elevator,Elevator,0.000307962424506093,0.360301920572291,1.15857759914223,0.00382219243094158,0.0347522969299746,0.999344448195127,-0.0093990725440676,-0.0695887282952257,0.00698615167966911,-3.12253955404424,0
163463,10.4919814,0.0162205900065696,10.4757608099934,Aileron_L,Aileron_L,0.224044435301952,0.0353174776656188,1.19157383672746,0.0056222035605258,-0.0304306227005997,0.99946044489933,-0.0110085017514246,0.0607462811904513,0.0119086127385323,-3.1199264725648,0
163463,10.4919814,0.0162205900065696,10.4757608099934,Aileron_R,Aileron_R,-0.207734592202182,0.029461576774862,1.19982526630242,0.00370681591913897,-0.0743309831832806,0.997224777792283,-0.00197661627017632,0.148787483986185,0.0076869807273426,-3.13820134799626,0
163463,10.4919814,0.0162205900065696,10.4757608099934,Rudder,Rudder,-0.000100021310993343,0.347872836861894,1.23726367855017,0.00523107737213108,0.0109668614507723,0.979918571867812,-0.19902752645801,-0.0235781122475829,0.00588667911899519,-2.74076227589888,0
163463,10.4919814,0.0162205900065696,10.4757608099934,Elevator,Elevator,0.000293313530116887,0.36030428800091,1.15852074930894,0.00343773680218145,0.0409534662396982,0.999111216485885,-0.00936870645970965,-0.0819919106048921,0.00610203865739495,-3.12258882207994,0
163466,10.505013,0.016080152498348,10.4889328475017,Aileron_L,Aileron_L,0.224032206736712,0.0354044300516507,1.19167538127266,0.0054497904817727,-0.00974909655109063,0.999894079976141,-0.00933186630903192,0.0193968213798611,0.0110806077555016,-3.12303495456597,0
163466,10.505013,0.016080152498348,10.4889328475017,Aileron_R,Aileron_R,-0.207688473210377,0.029497689862995,1.19982936633733,0.00363092411182399,-0.0753853019399978,0.997146509893468,-0.00164634406671463,0.150904730066757,0.00748941691579367,-3.13885671758638,0
163466,10.505013,0.016080152498348,10.4889328475017,Rudder,Rudder,3.10221503377939e-06,0.347851486678881,1.23728225519649,0.00573646745576678,0.00963544226799085,0.982924413713508,-0.183667765596979,-0.0210512161243674,0.00773766472833493,-2.77205490823243,0
163466,10.505013,0.016080152498348,10.4889328475017,Elevator,Elevator,0.000281885242883599,0.360344437666433,1.15855032083638,0.00374719482667235,0.0327977126671767,0.999411439819446,-0.00932965876943294,-0.06567549344163,0.00687805004932545,-3.12269694799254,0
163469,10.517731,0.0162023325054737,10.5015286674945,Aileron_L,Aileron_L,0.224049433375442,0.0353900429410913,1.19163699214401,0.00506176086141742,-0.025449189446953,0.999603110066795,-0.0109699443146573,0.0507918538577481,0.0106780591003904,-3.11991617494552,0
163469,10.517731,0.0162023325054737,10.5015286674945,Aileron_R,Aileron_R,-0.207713959308856,0.0294710520015557,1.19990172387718,0.00410913460875097,-0.0475610930523164,0.99885147011746,-0.00409854664787339,0.0951261649436124,0.00859879897125416,-3.1337954775074,0
163469,10.517731,0.0162023325054737,10.5015286674945,Rudder,Rudder,-6.04464136201859e-05,0.347834974851767,1.23728667455589,0.00513738573330744,0.010015135822794,0.980493198949167,-0.196230454152018,-0.02165787002835,0.00614383289344957,-2.74647647430194,0
163469,10.517731,0.0162023325054737,10.5015286674945,Elevator,Elevator,0.000303880478596304,0.360314103444783,1.15856222972014,0.00374488160179511,0.0380676904011777,0.999224889738856,-0.0092976629149655,-0.0762215358642063,0.00677612855991653,-3.12272507065542,0
163471,10.5309884,0.0154432425066861,10.5155451574933,Aileron_L,Aileron_L,0.224031834479925,0.035345917149936,1.19163981090855,0.00508044262467703,-0.0209286675469139,0.999712875493616,-0.0105045966002206,0.0417530552786943,0.0105978606114994,-3.12079948052908,0
163471,10.5309884,0.0154432425066861,10.5155451574933,Aileron_R,Aileron_R,-0.207760989189866,0.0295085553432477,1.19989582877923,0.00385010157661686,-0.0769086999103576,0.997029728529558,-0.00139607457709594,0.153962086921315,0.00789215394921435,-3.13940094047923,0
163471,10.5309884,0.0154432425066861,10.5155451574933,Rudder,Rudder,-7.75422134965613e-05,0.347842668230409,1.23729506155228,0.0051023186645443,0.0103526418031018,0.981328806324792,-0.191991049346319,-0.0222801397829177,0.00603891214746777,-2.75511823979294,0
163471,10.5309884,0.0154432425066861,10.5155451574933,Elevator,Elevator,0.000300842786930643,0.360297173115646,1.15856136713286,0.00360757751816562,0.0467001344075562,0.998859277748837,-0.00928580022602364,-0.0934987681987243,0.00633967077781069,-3.12270378670005,0
163474,10.5444637,0.015723185000728,10.5287405149993,Aileron_L,Aileron_L,0.224044902644774,0.0353730611662539,1.19165460437594,0.00495934177870012,-0.0160263675253137,0.999805568472359,-0.0103627083684061,0.0319508323021258,0.0102490876312482,-3.1210276974548,0
163474,10.5444637,0.015723185000728,10.5287405149993,Aileron_R,Aileron_R,-0.207774326641457,0.0294684965392942,1.19988786095315,0.00416041706208632,-0.0620217772192965,0.998061976853464,-0.0028775753308298,0.124102166361924,0.00866176113653765,-3.13636450952493,0
163474,10.5444637,0.015723185000728,10.5287405149993,Rudder,Rudder,-8.47098178456611e-05,0.347855157159993,1.23726808564151,0.00529277416861555,0.0107889549986204,0.979627394971982,-0.200463842156251,-0.0232628544530701,0.00604433920215385,-2.73783009164751,0
163474,10.5444637,0.015723185000728,10.5287405149993,Elevator,Elevator,0.000287062158603614,0.360298127600203,1.15848351199831,0.00338278172046129,0.0586792269425628,0.99822794385284,-0.00928855341730828,-0.117485294702696,0.00566351449128355,-3.1226500318011,0
163477,10.5591527,0.0156236000041926,10.5435290999958,Aileron_L,Aileron_L,0.22403018809962,0.0353538978615964,1.19165188528963,0.00502277194056174,-0.0184125611839477,0.999765834757717,-0.0101992648698265,0.036724289165253,0.0104189692448398,-3.1213813917313,0
163477,10.5591527,0.0156236000041926,10.5435290999958,Aileron_R,Aileron_R,-0.207748292982585,0.0294708636763628,1.19983874876223,0.00377368172809245,-0.0748652961171327,0.997184937556086,-0.00177399965444542,0.149860537378456,0.0077918180187781,-3.13861958309008,0
163477,10.5591527,0.0156236000041926,10.5435290999958,Rudder,Rudder,-5.053674463886e-05,0.34784397637713,1.23727982830361,0.00542746542624313,0.0105886980263703,0.982181871559314,-0.187555840413987,-0.0228384564972325,0.00668962188036902,-2.76414275299566,0
163477,10.5591527,0.0156236000041926,10.5435290999958,Elevator,Elevator,0.00028320091017602,0.360277293510485,1.15854228575671,0.0038485550500485,0.031849443102059,0.99944217584547,-0.00928109580747037,-0.063779630380779,0.00710168069452825,-3.12279408655864,0
163480,10.5736844,0.016334600002587,10.5573497999974,Aileron_L,Aileron_L,0.224039634227065,0.0353599762101306,1.19163355416046,0.00514895605305673,-0.0153528418886093,0.999819385761806,-0.0099485854467684,0.0306041850263524,0.0106017288740171,-3.12185478790669,0
163480,10.5736844,0.016334600002587,10.5573497999974,Aileron_R,Aileron_R,-0.207732505539912,0.0294776719777257,1.19988616519818,0.00406543482788845,-0.0552833718457988,0.998456955624091,-0.00330587399809526,0.110598563351931,0.00848394486101074,-3.13544034948274,0
163480,10.5736844,0.016334600002587,10.5573497999974,Rudder,Rudder,-7.40103001223149e-05,0.347831461006734,1.23725292343043,0.0050232499757416,0.00965226192950058,0.98308805801942,-0.182809931291852,-0.0208165695469493,0.00634757807265939,-2.77381698364432,0
163480,10.5736844,0.016334600002587,10.5573497999974,Elevator,Elevator,0.000297056789185131,0.36032370123157,1.15855183228175,0.00358394187771911,0.0452360376937839,0.998927172730404,-0.00923903865265163,-0.0905668068653794,0.00632436101252053,-3.12280867317951,0
163483,10.5888909,0.0156752525029341,10.5732156474971,Aileron_L,Aileron_L,0.22403500038513,0.0353327188607412,1.19161558294905,0.00602332929421269,-0.0285788800230071,0.999515265190131,-0.0107796926090356,0.0570356791080521,0.0126573001996809,-3.1203847105124,0
163483,10.5888909,0.0156752525029341,10.5732156474971,Aileron_R,Aileron_R,-0.207719454846471,0.0294693570623575,1.19983003906199,0.00354332847929066,-0.0857219433908591,0.996312614006568,-0.000606972800986368,0.171653508303006,0.00716464879117482,-3.14099065079311,0
163483,10.5888909,0.0156752525029341,10.5732156474971,Rudder,Rudder,-4.9986482935136e-05,0.347846253511327,1.23727819891413,0.00560672084607029,0.00975593061008739,0.981126712438799,-0.193038236208064,-0.0213104019381384,0.00723533503567606,-2.7529752722542,0
163483,10.5888909,0.0156752525029341,10.5732156474971,Elevator,Elevator,0.000290953511571063,0.36030954452695,1.15856463461425,0.00376314963562429,0.0375130577090986,0.999245675224509,-0.00931073312095704,-0.0751119508941195,0.00682212677792727,-3.12270133625447,0
163486,10.6025171,0.015719722504209,10.5867973774958,Aileron_L,Aileron_L,0.224026953579529,0.035388328390754,1.19164292323853,0.00542128612452044,-0.0191678261549945,0.999749930422247,-0.0101627121360627,0.0382275955036863,0.011229691070895,-3.1214775159411,0
163486,10.6025171,0.015719722504209,10.5867973774958,Aileron_R,Aileron_R,-0.207762762545147,0.0294689548489622,1.19987304875234,0.00359351472841423,-0.0761709810942125,0.997086951356364,-0.0016369868400491,0.152480780174078,0.00741554304131661,-3.13887558219022,0
163486,10.6025171,0.015719722504209,10.5867973774958,Rudder,Rudder,-8.13483510855655e-05,0.347879827640081,1.23727307506737,0.00547756140326568,0.0110614099427238,0.976779726793177,-0.21389017475564,-0.0239550327965669,0.00596892349401548,-2.71037665190345,0
163486,10.6025171,0.015719722504209,10.5867973774958,Elevator,Elevator,0.000277524044956857,0.36032704833434,1.15855008979863,0.00383230866554802,0.0296472587012087,0.999509372174858,-0.0093471063124504,-0.0593734440825221,0.00710668451898276,-3.12267877270861,0
163488,10.6166334,0.0156488350019155,10.6009845649981,Aileron_L,Aileron_L,0.224037540646576,0.0353909901498077,1.19166397501574,0.00549821545700565,-0.017270652952317,0.999785674088027,-0.0100050018360101,0.0344329006362178,0.0113399029608032,-3.12177428265238,0
163488,10.6166334,0.0156488350019155,10.6009845649981,Aileron_R,Aileron_R,-0.207736363209647,0.0294506469665946,1.19988293297423,0.00388303458409986,-0.0610228241453122,0.998124763116349,-0.00284503597176439,0.122101857363684,0.00809881874290282,-3.13638696511947,0
163488,10.6166334,0.0156488350019155,10.6009845649981,Rudder,Rudder,-7.19679268685525e-05,0.34788332828057,1.23731900022489,0.00554037615267495,0.0116424288085108,0.97466846692975,-0.22328264074114,-0.0251722091780864,0.00560098464860303,-2.69112238894329,0
163488,10.6166334,0.0156488350019155,10.6009845649981,Elevator,Elevator,0.000301737757937243,0.360270504197135,1.15849647977821,0.00341991942329302,0.04492226725564,0.998940500465852,-0.00938991931720761,-0.0899363740196047,0.00598899491256877,-3.12252395356922,0
163491,10.6305398,0.015587332501402,10.6149524674986,Aileron_L,Aileron_L,0.224062013717321,0.0353475779728097,1.19168125383564,0.00535163422327301,-0.0155481466313484,0.999813070126126,-0.0101705433700157,0.0309884623069557,0.0110177567932017,-3.12141919255181,0
163491,10.6305398,0.015587332501402,10.6149524674986,Aileron_R,Aileron_R,-0.207775652881566,0.0294414273225969,1.19987070334237,0.00416788821989059,-0.0587383953731395,0.998259055452506,-0.00335973568097163,0.117519034901241,0.00871606564000392,-3.1353742343078,0
163491,10.6305398,0.015587332501402,10.6149524674986,Rudder,Rudder,-5.11053582190577e-05,0.347824320901011,1.2372703268469,0.00564432353423644,0.010569497802269,0.978378038963392,-0.20647721472888,-0.0230153227408609,0.00667989312392129,-2.72553904914785,0
163491,10.6305398,0.015587332501402,10.6149524674986,Elevator,Elevator,0.000313439588723127,0.360283905447559,1.15851788969944,0.00401712219852461,0.0333674666492387,0.999390890271571,-0.00939804984299889,-0.0668213360594629,0.00740224002971682,-3.12253824542282,0
163494,10.6440194,0.0156685050049643,10.628350894995,Aileron_L,Aileron_L,0.224074443873248,0.0353688178124123,1.19168161389388,0.00538219250292292,-0.016901559703533,0.999788002231313,-0.0104556146528983,0.0336918598402741,0.0111157642804537,-3.12086502767848,0
163494,10.6440194,0.0156685050049643,10.628350894995,Aileron_R,Aileron_R,-0.207708630999204,0.0293848988388071,1.19988886003416,0.00425560487324723,-0.0667764682526829,0.997755548347148,-0.00258047618551899,0.133633806233633,0.00883685193097759,-3.1370114383579,0
163494,10.6440194,0.0156685050049643,10.628350894995,Rudder,Rudder,-3.90808007078816e-05,0.34780887800132,1.23726142992134,0.00560304722952027,0.0102182336178514,0.979173217818369,-0.202691891970782,-0.0222845900578763,0.0068304544739068,-2.73327623832344,0
163494,10.6440194,0.0156685050049643,10.628350894995,Elevator,Elevator,0.000318956005517135,0.360278790045934,1.15856798241522,0.00356422646323958,0.0517831378026221,0.998609054629742,-0.00926061231916354,-0.103675827455051,0.00615948945788734,-3.1227265802994,0
163497,10.6570673,0.0157964200051495,10.6412708799949,Aileron_L,Aileron_L,0.224079567240161,0.0353819036216737,1.19163306950247,0.00482440518054287,-0.0118241932037825,0.999866627139939,-0.0101804470204239,0.0235503312718211,0.00988843576626099,-3.12134619154459,0
163497,10.6570673,0.0157964200051495,10.6412708799949,Aileron_R,Aileron_R,-0.207751159152486,0.0294640398935646,1.19986760612598,0.00360246650977635,-0.0678055827480356,0.997689077810431,-0.00243499507534445,0.135700150854473,0.00751856633587983,-3.13722231485321,0
163497,10.6570673,0.0157964200051495,10.6412708799949,Rudder,Rudder,-7.08916684519101e-05,0.347865851290912,1.23729625530013,0.00504592172715809,0.0103280094406335,0.980998043096847,-0.193676819302346,-0.0222202853562841,0.00589952086498603,-2.75168391533113,0
163497,10.6570673,0.0157964200051495,10.6412708799949,Elevator,Elevator,0.000307208162985058,0.360288956120506,1.15851299614175,0.0033933325554022,0.0533769715816417,0.998525655388904,-0.00926821067416427,-0.10686452063067,0.00578727349715804,-3.12271987331769,0
163499,10.6681046,0.0156844999998914,10.6524201000001,Aileron_L,Aileron_L,0.224064909788474,0.0353533615698763,1.19161912555176,0.00487771388805352,-0.00707308268383451,0.999916176185948,-0.00968607300436606,0.0140516376353927,0.00989179214324436,-3.12228898919727,0
163499,10.6681046,0.0156844999998914,10.6524201000001,Aileron_R,Aileron_R,-0.207763275442716,0.0294210900671778,1.19986892622178,0.00407606822700279,-0.0734587749548156,0.997287353655911,-0.00226457235165002,0.147035026388411,0.00846282902922181,-3.13767449047903,0
163499,10.6681046,0.0156844999998914,10.6524201000001,Rudder,Rudder,-1.19553656687721e-06,0.347876045450487,1.23730036737965,0.00576559582580429,0.0100583817743876,0.982781739863042,-0.184406178455675,-0.0218991974476339,0.00762306293566899,-2.77054866901406,0
163499,10.6681046,0.0156844999998914,10.6524201000001,Elevator,Elevator,0.000285958719045965,0.360305375527137,1.15853190159692,0.00355348930075718,0.0446315611759638,0.998953208120658,-0.00937467045987343,-0.0893569247210063,0.0062627676576609,-3.12254421832948,0
163501,10.6816089,0.0153179875006037,10.6662909124994,Aileron_L,Aileron_L,0.224053500538961,0.0353242897258615,1.19166732265582,0.00524003599779778,-0.00920622949240219,0.999896328608265,-0.00975291735777982,0.018310402050858,0.0106587625239123,-3.12218300184959,0
163501,10.6816089,0.0153179875006037,10.6662909124994,Aileron_R,Aileron_R,-0.207794010880007,0.0294582020141209,1.19985276804245,0.00408841282348718,-0.0584855103795989,0.998275212662284,-0.00305446235752403,0.117015390400557,0.00852010902341682,-3.13597225770542,0
163501,10.6816089,0.0153179875006037,10.6662909124994,Rudder,Rudder,-5.31549680001202e-05,0.347819305603244,1.23726815543561,0.00533551029129298,0.0104122745411347,0.980743253199057,-0.194950732682241,-0.0225062209835869,0.00640581414951249,-2.74907891701409,0
163501,10.6816089,0.0153179875006037,10.6662909124994,Elevator,Elevator,0.000274908063565712,0.360327288402212,1.15856825970537,0.00369724863120679,0.0313429009486256,0.999458453305024,-0.00931413065254835,-0.0627633794770466,0.00680668160777154,-3.1227411621369,0
163504,10.6938587,0.0156038875044458,10.6782548124956,Aileron_L,Aileron_L,0.224050188669501,0.0352807658701841,1.19162142324656,0.00477694070439666,-0.01124110916077,0.999873688823338,-0.0101697935648677,0.0223851578099426,0.00978147014246602,-3.12136068376689,0
163504,10.6938587,0.0156038875044458,10.6782548124956,Aileron_R,Aileron_R,-0.207749096551276,0.0293983548668965,1.19989351802871,0.00386362167026342,-0.0597107280697934,0.998203418454229,-0.00310431429704231,0.11947081649554,0.00808417050634919,-3.13585635972801,0
163504,10.6938587,0.0156038875044458,10.6782548124956,Rudder,Rudder,-2.55078066543519e-05,0.347808248917918,1.23731021288489,0.00595279790501473,0.0106791236852277,0.97706080115753,-0.212609292731582,-0.0234022710404278,0.00709158855291084,-2.71298807851607,0
163504,10.6938587,0.0156038875044458,10.6782548124956,Elevator,Elevator,0.000279105164512694,0.360251172257809,1.15848536222231,0.00331462967762742,0.0572974102151166,0.998310082956239,-0.00911033921698543,-0.114714769965085,0.00557408763511369,-3.12302157124633,0
163507,10.708343,0.01536709750594,10.6929759024941,Aileron_L,Aileron_L,0.22403860652552,0.035364001644816,1.19163447094324,0.00508237999716529,-0.0209258627379238,0.999712937242711,-0.0105033704966044,0.0417474180526432,0.0106016248417427,-3.12080198317009,0
163507,10.708343,0.01536709750594,10.6929759024941,Aileron_R,Aileron_R,-0.207697872024966,0.0294683413616194,1.19989386346325,0.00394071849961911,-0.0629285528189789,0.998005868253862,-0.00295886949207066,0.125919565710581,0.00823820831065395,-3.1361824728013,0
163507,10.708343,0.01536709750594,10.6929759024941,Rudder,Rudder,-4.13035950097429e-05,0.347822492315468,1.23726376346455,0.00553665369434871,0.0105621358645865,0.978417432931525,-0.206293755813238,-0.0229552072370667,0.00647655691276765,-2.72591688979049,0
163507,10.708343,0.01536709750594,10.6929759024941,Elevator,Elevator,0.000303088081050799,0.360269482398137,1.15855591737534,0.00365223643503991,0.0453808633344753,0.998919972690846,-0.00928044025680786,-0.0908583380788086,0.0064543198704583,-3.1227188224242,0
163510,10.7225282,0.0150878174982917,10.7074403825017,Aileron_L,Aileron_L,0.224041702149936,0.0353654292481055,1.19158357091594,0.00574556438444676,-0.0374712296246042,0.999214893823807,-0.0115104909105623,0.0748268564598703,0.0123450450707678,-3.11901669460604,0
163510,10.7225282,0.0150878174982917,10.7074403825017,Aileron_R,Aileron_R,-0.207753416344659,0.0295114862011616,1.19983785905597,0.00414528002790196,-0.0704651276962564,0.997503079544299,-0.00225582177485174,0.141031901097599,0.00858787828697586,-3.13767631619998,0
163510,10.7225282,0.0150878174982917,10.7074403825017,Rudder,Rudder,-3.34269290954454e-05,0.34782676274565,1.2373205977328,0.00545083132717495,0.0103359723754604,0.978898551641551,-0.204012454783943,-0.0224621683935536,0.00645433240180859,-2.73058202336956,0
163510,10.7225282,0.0150878174982917,10.7074403825017,Elevator,Elevator,0.000297059190864473,0.360318552313557,1.15855720691,0.00373771257878216,0.0369871608355148,0.999266211566956,-0.00922051292663193,-0.0740583506655271,0.00678791071405062,-3.12288714307527,0
163512,10.7362511,0.0153361949991713,10.7209149050008,Aileron_L,Aileron_L,0.22403472385224,0.0353464487135807,1.19160026215303,0.00568374531470527,-0.0293279684742037,0.999494315242962,-0.0108939938211875,0.0585400811521678,0.0120010277492952,-3.12014588082593,0
163512,10.7362511,0.0153361949991713,10.7209149050008,Aileron_R,Aileron_R,-0.207750864834066,0.0294441686510946,1.19989935441361,0.00361282076859636,-0.0721251274429122,0.9973871670025,-0.00193716704615911,0.144364315632099,0.00748626890954485,-3.13824949289276,0
163512,10.7362511,0.0153361949991713,10.7209149050008,Rudder,Rudder,-6.0031237588289e-05,0.347846728882812,1.2372814389306,0.00547030177058349,0.0107857199993717,0.980001272334454,-0.198623388012299,-0.0233156938511179,0.0064372573516517,-2.74158171562754,0
163512,10.7362511,0.0153361949991713,10.7209149050008,Elevator,Elevator,0.000335211857386099,0.360329135577214,1.15861489534098,0.0036134133391947,0.0374008243431826,0.999250343515977,-0.00932054535377639,-0.0748844918960265,0.0065242631670024,-3.12269372082008,0
163516,10.752065,0.0152102700065966,10.7368547299934,Aileron_L,Aileron_L,0.22404689325837,0.0354053440076192,1.1916549275642,0.00504872520741227,-0.0257909304911686,0.999592759674424,-0.0111199408563277,0.0514742269344557,0.0106671278659053,-3.11961923325701,0
163516,10.752065,0.0152102700065966,10.7368547299934,Aileron_R,Aileron_R,-0.207698945258887,0.0294246290442834,1.19987591533419,0.00416875268928132,-0.0476873547066939,0.998844105610295,-0.00435779642294436,0.0953763083155113,0.00874360307890927,-3.13328431545712,0
163516,10.752065,0.0152102700065966,10.7368547299934,Rudder,Rudder,-3.39681346779619e-05,0.34785194351198,1.23730449503329,0.00579506733986143,0.0110181581647156,0.978501527980221,-0.205863491482963,-0.023951399198458,0.00680454398494456,-2.72678651840895,0
163516,10.752065,0.0152102700065966,10.7368547299934,Elevator,Elevator,0.000326670750891503,0.360290818062209,1.1585554393046,0.00366674506085754,0.0304305229686101,0.999485105682264,-0.00949008808331128,-0.0609384013621169,0.00675218877011018,-3.12239747198472,0
163519,10.7702315,0.0151900425023654,10.7550414574976,Aileron_L,Aileron_L,0.224022538683085,0.0353084534784447,1.19157116076327,0.00576451955646658,-0.0275019337341106,0.999549856644329,-0.0105118046723333,0.0548894927126422,0.0121023347325783,-3.12089258467267,0
163519,10.7702315,0.0151900425023654,10.7550414574976,Aileron_R,Aileron_R,-0.207737599163498,0.0294553663758303,1.19981066065646,0.00374480046476809,-0.0813668345256158,0.996676222797668,-0.00138622456081124,0.16290679042901,0.00769036837705849,-3.13943875923324,0
163519,10.7702315,0.0151900425023654,10.7550414574976,Rudder,Rudder,-8.39586636720178e-05,0.347815149031845,1.23729043325528,0.00536580555182664,0.0110322087408873,0.97426224255212,-0.225083498369808,-0.023914677117136,0.00548909478826331,-2.68743477829878,0
163519,10.7702315,0.0151900425023654,10.7550414574976,Elevator,Elevator,0.000287955495059837,0.36027791502091,1.15852532400879,0.00371617664429406,0.0435603419596404,0.999002045348666,-0.00914330512943356,-0.0872141320185661,0.00662841367830582,-3.12299905689978,0
163523,10.7884361,0.0154122700045076,10.7730238299955,Aileron_L,Aileron_L,0.224050010182954,0.0352810509358588,1.19157026821748,0.00563504341245771,-0.0273447062585121,0.999551378048983,-0.0108423228947479,0.0545736040027464,0.0118582689994751,-3.12022278439026,0
163523,10.7884361,0.0154122700045076,10.7730238299955,Aileron_R,Aileron_R,-0.207776423701399,0.0293956302216458,1.19991569899299,0.00391202839822706,-0.0593729323284225,0.998223074347461,-0.00320074691912092,0.118792993870781,0.00819032105902181,-3.13566683849023,0
163523,10.7884361,0.0154122700045076,10.7730238299955,Rudder,Rudder,-5.32556996509972e-05,0.347807022596239,1.23727684279894,0.00568324524828459,0.0108482801406509,0.974460146726151,-0.224226309749516,-0.0236937734094996,0.00621129228960358,-2.68918643593965,0
163523,10.7884361,0.0154122700045076,10.7730238299955,Elevator,Elevator,0.000279721993256515,0.360266418486098,1.15849165307957,0.00339058475429765,0.0500904958130807,0.998696545762146,-0.00920085034017178,-0.100282514992093,0.00585061363096088,-3.12287385305315,0
163526,10.8047586,0.0161196324957907,10.7886389675042,Aileron_L,Aileron_L,0.224088715369114,0.0353488589561754,1.1916327139913,0.00483925349189844,-0.0183759635993187,0.999760616205724,-0.0108450851259584,0.0366482278062403,0.0100749383259512,-3.12008277728405,0
163526,10.8047586,0.0161196324957907,10.7886389675042,Aileron_R,Aileron_R,-0.207775987800645,0.0294278754716387,1.19993199391315,0.00378199109680449,-0.0753621182815527,0.997147558047283,-0.00173065068720992,0.150857338942188,0.00780333657035824,-3.13871117138079,0
163526,10.8047586,0.0161196324957907,10.7886389675042,Rudder,Rudder,-3.76987741200576e-05,0.347830038199705,1.23727737354848,0.00562242156830606,0.0107332364530484,0.978651085460262,-0.205171242961587,-0.0233179263860077,0.00660052294061686,-2.72820757596466,0
163526,10.8047586,0.0161196324957907,10.7886389675042,Elevator,Elevator,0.000309924666192994,0.36027895641708,1.15854919776745,0.00358086643194513,0.0453860705346748,0.998918826789904,-0.00940529009122613,-0.0908681582464718,0.00630029315145616,-3.12247582424235,0
163529,10.8214166,0.0154529200073857,10.8059636799926,Aileron_L,Aileron_L,0.224052474882484,0.0354468426158246,1.19170143310812,0.00539833243156079,-0.0238573024647978,0.999642990692133,-0.0107507342144382,0.0476025153789318,0.0113060182547506,-3.12035348653844,0
163529,10.8214166,0.0154529200073857,10.8059636799926,Aileron_R,Aileron_R,-0.207729251165534,0.029456559532203,1.19992243834828,0.00402192868872552,-0.0518744580082452,0.998637740814295,-0.0039404717096619,0.103765690065034,0.00844181949371309,-3.13413938222144,0
163529,10.8214166,0.0154529200073857,10.8059636799926,Rudder,Rudder,-6.24751324302464e-05,0.347857853409428,1.23728235354318,0.00515498085250103,0.0104926529469872,0.981423717134423,-0.191496260675232,-0.0225721326355493,0.00609987115991392,-2.75612435081994,0
163529,10.8214166,0.0154529200073857,10.8059636799926,Elevator,Elevator,0.000328827283177089,0.360320792893441,1.1585489105594,0.00372777954467699,0.0402908420283276,0.999138410240609,-0.00922978278096236,-0.0806703485127393,0.00670543426514973,-3.12284708261097,0
163532,10.8362058,0.0150671375058156,10.8211386624942,Aileron_L,Aileron_L,0.224060361817992,0.0353244483946004,1.19159575224088,0.00488874588634289,-0.0180611221891681,0.999768606683718,-0.0106126866826408,0.0360197669952046,0.0101587581186592,-3.12054614444986,0
163532,10.8362058,0.0150671375058156,10.8211386624942,Aileron_R,Aileron_R,-0.207755143761717,0.0294632888168276,1.19988003151724,0.00407912302513149,-0.0582856934954226,0.998286530168508,-0.00318470928401353,0.116614004977811,0.00851561603913801,-3.13570941060686,0
163532,10.8362058,0.0150671375058156,10.8211386624942,Rudder,Rudder,-6.85527057146711e-05,0.347792464971897,1.23728583055201,0.00523747207740391,0.0104098840534415,0.977958329160597,-0.208474721790547,-0.0225469298795727,0.00590369781403464,-2.72146683642439,0
163532,10.8362058,0.0150671375058156,10.8211386624942,Elevator,Elevator,0.000360128782567732,0.360321999611441,1.15855945765175,0.00354592635655544,0.0317739079553112,0.9994441811815,-0.00944319236079938,-0.0636237185734068,0.00648786219296711,-3.12248986658703,0
163535,10.8499896,0.0156304950018239,10.8343591049982,Aileron_L,Aileron_L,0.224074971462557,0.0352741623078899,1.19163284294676,0.00482016847647923,-0.0293452138984273,0.999491368767761,-0.0115164298227063,0.0585861754592876,0.0103115205014659,-3.11885123786941,0
163535,10.8499896,0.0156304950018239,10.8343591049982,Aileron_R,Aileron_R,-0.207721139503392,0.0294099717627447,1.19981897092324,0.0041156997385185,-0.0685343016444173,0.997637205171676,-0.00247333196738038,0.137159026783074,0.00855107073698443,-3.13722163709845,0
163535,10.8499896,0.0156304950018239,10.8343591049982,Rudder,Rudder,-4.51509266175698e-05,0.347801743116709,1.23731807720397,0.00549912621471197,0.0107449126992948,0.976924946437119,-0.213241542600853,-0.0233417934731657,0.00616198264233569,-2.7117056908679,0
163535,10.8499896,0.0156304950018239,10.8343591049982,Elevator,Elevator,0.000288788505669986,0.360241696253786,1.15848824477406,0.00350163731958129,0.032999535205708,0.999404763655338,-0.00942802181307048,-0.0660752244143708,0.00637690857945523,-3.12251518390469,0
163538,10.8656289,0.0156556950045342,10.8499732049955,Aileron_L,Aileron_L,0.22406217065836,0.0353171037780668,1.19160303561247,0.00479630920625155,-0.0220100019499335,0.999686273536015,-0.0109503303985579,0.0439174943663798,0.0100718128233888,-3.11990719776322,0
163538,10.8656289,0.0156556950045342,10.8499732049955,Aileron_R,Aileron_R,-0.207752759051909,0.0294593014054439,1.19982646020924,0.00365607919313675,-0.0777624624448987,0.99696360722983,-0.00178840116427776,0.155672045702342,0.00756816900518767,-3.13859523295011,0
163538,10.8656289,0.0156556950045342,10.8499732049955,Rudder,Rudder,-5.31659556114938e-05,0.347832020601054,1.23726927637387,0.00556872818728791,0.010796123650362,0.977706618115001,-0.209623953484879,-0.0234481839974172,0.00636295549888016,-2.71910570489393,0
163538,10.8656289,0.0156556950045342,10.8499732049955,Elevator,Elevator,0.0003036318321389,0.360276078184057,1.1585536816884,0.00359918597362586,0.046799776946565,0.998854282899432,-0.00932460570427907,-0.0936983463065128,0.00631738773569465,-3.12262641119475,0
163541,10.8808668,0.0153000625037226,10.8655667374963,Aileron_L,Aileron_L,0.224053310459245,0.0354434855093294,1.19165089333763,0.00512292299394698,-0.0195207603952277,0.999741887832199,-0.010433277879041,0.0389365914191997,0.0106507338110158,-3.12092884799279,0
163541,10.8808668,0.0153000625037226,10.8655667374963,Aileron_R,Aileron_R,-0.207691697828737,0.0294575293537266,1.19990545881077,0.00376355724363504,-0.0650199044366698,0.997873067509827,-0.00275477811225712,0.130113319293712,0.00786941686437443,-3.13658405205886,0
163541,10.8808668,0.0153000625037226,10.8655667374963,Rudder,Rudder,-5.62038704398783e-05,0.347869363971639,1.23727666726759,0.00544434113953494,0.0104054723328174,0.980443375277273,-0.196450688901809,-0.0225454410123646,0.00658745963303778,-2.74601725534302,0
163541,10.8808668,0.0153000625037226,10.8655667374963,Elevator,Elevator,0.000294782369296194,0.360287880426997,1.15851553984918,0.00334765431075203,0.0512118513810317,0.998638777650284,-0.00931296203631588,-0.102527849778792,0.00573235815642463,-3.12264775991829,0
163544,10.8944605,0.0160678550010221,10.878392644999,Aileron_L,Aileron_L,0.224073103856205,0.0354032038874555,1.19167097126522,0.00538427595423995,-0.0235359779688713,0.999648219059591,-0.0109774971867876,0.0469574273078661,0.0112817353181314,-3.1198957480401,0
163544,10.8944605,0.0160678550010221,10.878392644999,Aileron_R,Aileron_R,-0.207716909992404,0.0294784426411439,1.19985614431174,0.00362067829873384,-0.0744094933957019,0.997219308551199,-0.0019412969689462,0.148945402878926,0.00751019306644987,-3.13825958145518,0
163544,10.8944605,0.0160678550010221,10.878392644999,Rudder,Rudder,-1.14984087492811e-05,0.347840000132557,1.23730020664436,0.00583394193661433,0.0105788969619109,0.977529095148625,-0.210454080973641,-0.0231405374095108,0.00695300791216554,-2.71740193855802,0
