frame_number,t_read_host_s,vicon_latency_s,t_capture_host_s,subject_name,segment_name,x_m,y_m,z_m,qx,qy,qz,qw,roll_rad,pitch_rad,yaw_rad,is_occluded,t_elapsed_s,phase_name,phase_type
2139325,0.0381851,0.0138432000003377,0.0243418999996623,Nausicaa,Nausicaa,NaN,NaN,NaN,NaN,NaN,NaN,NaN,NaN,NaN,NaN,1,-0.0126538000003377,unlabeled,unlabeled
2139327,0.0497548,0.0140725000001112,0.0356822999998888,Nausicaa,Nausicaa,0.000625021213689733,0.0667117907206053,1.20889109682255,-0.00397011007530462,-0.00527187027451389,0.00390921300249275,0.999970581399023,-0.00789929263856021,-0.0105746674605684,0.00777684938603615,0,-0.00131340000011117,unlabeled,unlabeled
2139329,0.0610509,0.0143236999992951,0.0467272000007049,Nausicaa,Nausicaa,0.000641784721987254,0.0666954589003795,1.20890561162879,-0.00398108316143555,-0.00526804898359636,0.0039152295698981,0.99997053437298,-0.00792120555801849,-0.0105671578856969,0.00778879693853977,0,0.00973150000070494,static_reference,static_reference
2139332,0.0764913,0.014552000000549,0.061939299999451,Nausicaa,Nausicaa,0.000657227870441558,0.0667098137307688,1.20892029879138,-0.00407240522475764,-0.00516303066473231,0.00382415440813094,0.999971066817987,-0.00810560983199847,-0.0103570947420198,0.00760651693678324,0,0.024943599999451,static_reference,static_reference
2139335,0.0907395,0.0143514999999752,0.0763880000000248,Nausicaa,Nausicaa,0.000663154096382314,0.0667385879534355,1.20892641328087,-0.00409503783488463,-0.00515717860609422,0.0038401923566298,0.999970943126159,-0.00815075501740455,-0.0103456935299603,0.00763840691413314,0,0.0393923000000248,static_reference,static_reference
2139338,0.1058725,0.0141836000002513,0.0916888999997487,Nausicaa,Nausicaa,0.000672715093495467,0.0667424964905252,1.20891343156213,-0.00400290281570685,-0.00518714566438603,0.0038818311268945,0.999971000417516,-0.00796581768175448,-0.0104052554248248,0.00772240462747928,0,0.0546931999997487,static_reference,static_reference
2139342,0.1223719,0.0139318000001367,0.108440099999863,Nausicaa,Nausicaa,0.000635823209311159,0.0666986451355762,1.20889792626922,-0.00407422160061974,-0.00515527166189481,0.00385652554801263,0.999970975130348,-0.00810896632194135,-0.0103418530903071,0.0076713052589461,0,0.0714443999998633,static_reference,static_reference
2139345,0.1361661,0.0140076000006957,0.122158499999304,Nausicaa,Nausicaa,0.000644418297574663,0.0666863251902997,1.20890129432562,-0.00410812323786889,-0.00514163464069529,0.0038435332563814,0.999970956662638,-0.00817700986717809,-0.0103147329403247,0.00764507947592081,0,0.0851627999993043,static_reference,static_reference
2139348,0.1523972,0.0135874999996304,0.13880970000037,Nausicaa,Nausicaa,0.00061929693141998,0.0667415677581658,1.20895496385144,-0.00398446769715901,-0.00545772092831347,0.00389099282851685,0.999969598274991,-0.00792677912293393,-0.0109463356799812,0.00773879772121093,0,0.10181400000037,static_reference,static_reference
2139351,0.1678977,0.0137895999996545,0.154108100000346,Nausicaa,Nausicaa,0.000661041034768509,0.0667243129389746,1.20890070606036,-0.00401059077063824,-0.00524418297695598,0.00389858105705132,0.999970606954183,-0.00798058230100178,-0.0105195229099321,0.00775537522815524,0,0.117112400000346,static_reference,static_reference
2139354,0.1835851,0.013777600001049,0.169807499998951,Nausicaa,Nausicaa,0.000664356211339837,0.06675482549892,1.20888973823815,-0.00398761609263243,-0.00527120904538477,0.00381409102050794,0.99997088256748,-0.00793531701088137,-0.010572726357358,0.00758641758931067,0,0.132811799998951,static_reference,static_reference
2139357,0.1985633,0.0141996000002109,0.184363699999789,Nausicaa,Nausicaa,0.000654380461672017,0.0666907398463124,1.20891009111767,-0.00398548318985571,-0.00521830541875388,0.00392450023515467,0.999970741327067,-0.0079302922698834,-0.0104677787012549,0.00780768296042447,0,0.147367999999789,static_reference,static_reference
2139360,0.214933,0.013709499999095,0.201223500000905,Nausicaa,Nausicaa,0.000628512068020909,0.0667179136851137,1.20894615796056,-0.00421630132461333,-0.00530397081293944,0.00387874548588747,0.999969522550668,-0.00839177368469559,-0.01064052702939,0.00771304137074859,0,0.164227800000905,static_reference,static_reference
2139363,0.2301787,0.0138050999994448,0.216373600000555,Nausicaa,Nausicaa,0.000641740930440739,0.0667542683751118,1.2089080107596,-0.00388958427469357,-0.00529557738903835,0.00383138613874167,0.999971073818909,-0.00773887844515853,-0.01062085309034,0.00762185910348504,0,0.179377900000555,static_reference,static_reference
2139366,0.2456168,0.0141688999992766,0.231447900000723,Nausicaa,Nausicaa,0.000652750924251643,0.0667482747147618,1.20887986243107,-0.00401691766289992,-0.00523246240342337,0.00379427643863438,0.999971044168777,-0.0079944213255221,-0.0104952970556439,0.00754678367553231,0,0.194452200000723,static_reference,static_reference
2139369,0.2603391,0.0139655000002676,0.246373599999732,Nausicaa,Nausicaa,0.000627957011030829,0.0667169666653595,1.20890184603414,-0.00406047513044754,-0.00516868862858702,0.00385453429208979,0.999970969461097,-0.00808139108939075,-0.0103685654202921,0.0076673573876516,0,0.209377899999732,static_reference,static_reference
2139373,0.2765786,0.0141444000000774,0.262434199999923,Nausicaa,Nausicaa,0.000616523293247583,0.0667024422440682,1.20894214046171,-0.00421880022655765,-0.00531097722080195,0.00387763318774959,0.999969479137473,-0.00839673014144938,-0.0106545497518603,0.00771073183193632,0,0.225438499999923,static_reference,static_reference
2139376,0.2920252,0.01382520000152,0.27819999999848,Nausicaa,Nausicaa,0.000664522026600451,0.0667057167956309,1.20886756230805,-0.0039915541678493,-0.00533050416251867,0.0038571466818421,0.999970387381633,-0.00794228830278429,-0.010691688341732,0.00767202468786856,0,0.24120429999848,static_reference,static_reference
2139379,0.3071306,0.0139089999993303,0.29322160000067,Nausicaa,Nausicaa,0.000622742459150257,0.0667282997660306,1.2088929659669,-0.00399429918251065,-0.00520357688590244,0.00386220774756095,0.999971025436711,-0.00794868900556274,-0.0104378953887268,0.00768311651549829,0,0.25622590000067,static_reference,static_reference
2139382,0.3230436,0.0157851550002493,0.307258444999751,Nausicaa,Nausicaa,0.000634631777589275,0.0667762593813094,1.20891871352144,-0.00402542366767535,-0.00548357786604166,0.00388821874173005,0.999969303575414,-0.00800852746889332,-0.0109983442669461,0.00773259605725461,0,0.270262744999751,static_reference,static_reference
2139385,0.338306,0.0157421824986937,0.322563817501306,Nausicaa,Nausicaa,0.00065307223785391,0.066727145693919,1.20892009383079,-0.00398919461085146,-0.00520660704610368,0.00384051249160125,0.999971113599401,-0.00793868299659925,-0.0104437442473537,0.00763975371803421,0,0.285568117501306,static_reference,static_reference
2139388,0.3538814,0.0149407874996984,0.338940612500302,Nausicaa,Nausicaa,0.000665149801466957,0.0667137703875923,1.2089161943918,-0.00403544483488693,-0.00515518681054887,0.00382513538813411,0.999971253373413,-0.00803173488112097,-0.0103411337891752,0.00760892417130527,0,0.301944912500302,static_reference,static_reference
2139391,0.3691985,0.0150344075005975,0.354164092499403,Nausicaa,Nausicaa,0.000607918361557389,0.0666929878470821,1.20890148828676,-0.00387387117016811,-0.00529927596190511,0.00395987506951256,0.999970614661186,-0.00770605729694549,-0.010629120715546,0.0078789865767669,0,0.317168392499402,static_reference,static_reference
2139394,0.3843026,0.0153833600002999,0.3689192399997,Nausicaa,Nausicaa,0.000648778528030291,0.0667024611932616,1.20887781428037,-0.00403360316517407,-0.0052545048944498,0.00390928373098462,0.999970418424731,-0.00802641703118545,-0.0105404310880698,0.00777645735556119,0,0.3319235399997,static_reference,static_reference
2139397,0.4005114,0.015170165001204,0.385341234998796,Nausicaa,Nausicaa,0.000647346312372056,0.0667025155783993,1.20891579334252,-0.00405878455313398,-0.00517220548472534,0.00384290688235154,0.999971002892118,-0.00807810376767436,-0.0103754922277081,0.00764409104478734,0,0.348345534998796,static_reference,static_reference
2139401,0.4154999,0.014777037500444,0.400722862499556,Nausicaa,Nausicaa,0.000643046891411923,0.0667216691778992,1.20889988303284,-0.00413414614464221,-0.00547347326066571,0.00388927308669553,0.999968911257233,-0.00822604811238828,-0.0109789844041886,0.00773359124704312,0,0.363727162499556,static_reference,static_reference
2139404,0.4308073,0.0146747200001786,0.416132579999821,Nausicaa,Nausicaa,0.000638745205128771,0.0666735087853623,1.20886721547624,-0.00404976890129773,-0.0052579665554005,0.00390006141500849,0.999970370901312,-0.00805882051869595,-0.0105474057895169,0.00775781394733962,0,0.379136879999821,static_reference,static_reference
2139407,0.4462549,0.0147699600000656,0.431484939999934,Nausicaa,Nausicaa,0.000650858452389431,0.0667163357994713,1.20891716213686,-0.00399357974329431,-0.00520329964218441,0.00387603723026179,0.999970976243339,-0.00794710782615994,-0.0104374452819395,0.00771078629048825,0,0.394489239999934,static_reference,static_reference
2139410,0.4609595,0.0145316249999929,0.446427875000007,Nausicaa,Nausicaa,0.000667300114825301,0.0667399367253374,1.2088875400753,-0.00405523300656898,-0.00520351862665483,0.00379118253562214,0.999971052288088,-0.00807130354643402,-0.010437673771586,0.00754042481183468,0,0.409432175000007,static_reference,static_reference
2139413,0.4767123,0.0142184275013097,0.46249387249869,Nausicaa,Nausicaa,0.000641093476324567,0.066754445934946,1.20888673555637,-0.00401053265965814,-0.00523048007743929,0.00379432456534191,0.999971079985336,-0.00798166507006808,-0.0104912846053422,0.00754696261410804,0,0.42549817249869,static_reference,static_reference
2139416,0.4914303,0.0147272275006087,0.476703072499391,Nausicaa,Nausicaa,0.000657095165365787,0.0667422594580169,1.20890548929128,-0.00399950790693198,-0.00525815543038408,0.00380111690258336,0.999970953202274,-0.00795933643284178,-0.0105466061068227,0.00756044541191103,0,0.439707372499391,static_reference,static_reference
2139419,0.5063568,0.0152797824993206,0.491077017500679,Nausicaa,Nausicaa,0.000647421638431031,0.0666965498015192,1.20891179041378,-0.00402577580031182,-0.00519164612383063,0.00386555732828699,0.999970948281135,-0.00801170064252789,-0.0104143025803281,0.00768958201723681,0,0.454081317500679,static_reference,static_reference
2139422,0.5222613,0.014238667500382,0.508022632499618,Nausicaa,Nausicaa,0.000637005294081701,0.0667637984404204,1.20892835136309,-0.00407722428624213,-0.00542154664265415,0.00382320344213409,0.999969682635209,-0.00811331468880526,-0.010874154972358,0.00760248805429398,0,0.471026932499618,static_reference,static_reference
2139425,0.5376522,0.0147598674986675,0.522892332501333,Nausicaa,Nausicaa,0.000654098814648482,0.0667344977995952,1.20886274419021,-0.00397187821723529,-0.00532069428872461,0.00385781851214427,0.999970515381349,-0.0079030019638667,-0.0106719229604175,0.0076736555101253,0,0.485896632501333,static_reference,static_reference
2139428,0.5530371,0.0148383699994806,0.538198730000519,Nausicaa,Nausicaa,0.000643248064689727,0.0667103253474564,1.20888847886181,-0.00403807684283687,-0.00517818787925081,0.00386406592093823,0.999970974228881,-0.00803642160871153,-0.0103874687463899,0.00768657805835288,0,0.501203030000519,static_reference,static_reference
2139431,0.5686983,0.0150394575006031,0.553658842499397,Nausicaa,Nausicaa,0.000643409951851085,0.066703801960545,1.20894345432408,-0.00411982347169246,-0.00536353855106306,0.00392060940737645,0.99996944369848,-0.00819790480660927,-0.0107592613435143,0.00779731586857664,0,0.516663142499397,static_reference,static_reference
2139434,0.5847017,0.0146214799988628,0.570080220001137,Nausicaa,Nausicaa,0.000620379905076149,0.0667299673810956,1.20890717660309,-0.00402560617533589,-0.00516725215396624,0.00385303053998246,0.999971123660957,-0.00801167679366355,-0.0103654130644416,0.0076647227084109,0,0.533084520001137,static_reference,static_reference
2139437,0.6002073,0.0147845824998544,0.585422717500146,Nausicaa,Nausicaa,0.000661142828143003,0.0667413779481914,1.20889339533873,-0.00399869653522362,-0.00526219653440871,0.0038163106770834,0.999970877319169,-0.00795752303292213,-0.010554803080064,0.00759081092993248,0,0.548427017500146,static_reference,static_reference
2139441,0.6172784,0.0143749450004838,0.602903454999516,Nausicaa,Nausicaa,0.000641544341082529,0.0667206077171775,1.20891470182534,-0.00399131411549785,-0.00518635255586476,0.00386421576440131,0.999971119080608,-0.00794282865534131,-0.0104034397987245,0.00768729930933217,0,0.565907754999516,static_reference,static_reference
2139443,0.6324787,0.0147864250006619,0.617692274999338,Nausicaa,Nausicaa,0.000645881154836191,0.0667276514589415,1.20892642463156,-0.00401577330766125,-0.00515162654208354,0.00385569498580846,0.99997123354869,-0.0079921012005492,-0.0103341078255838,0.00767027738577168,0,0.580696574999338,static_reference,static_reference
2139450,0.6641046,0.014624897499839,0.649479702500161,Nausicaa,Nausicaa,0.000671042978309825,0.0666887850049592,1.20891307797699,-0.00403594224330155,-0.00516860079202725,0.00389227231047414,0.999970923053427,-0.00803193266786905,-0.010368504760502,0.00774309150090845,0,0.612484002500161,static_reference,static_reference
2139453,0.6795937,0.0151295124997297,0.66446418750027,Nausicaa,Nausicaa,0.000656985369810102,0.066740805504076,1.20890232121406,-0.0039716222524069,-0.00525935014417779,0.00379991966665788,0.99997106261295,-0.00790356644880882,-0.0105487752333205,0.0075583356007322,0,0.62746848750027,static_reference,static_reference
2139456,0.6946939,0.0145604875005493,0.680133412499451,Nausicaa,Nausicaa,0.000654459674457128,0.0667322737064409,1.20886565005353,-0.00395176694995916,-0.00529498957787564,0.00387207001686649,0.999970676418628,-0.00786282144986076,-0.0106204713101183,0.00770257437842534,0,0.643137712499451,static_reference,static_reference
2139459,0.7091569,0.0147605149992213,0.694396385000779,Nausicaa,Nausicaa,0.000651075865982888,0.0667524278546277,1.20889323954268,-0.00398835964749906,-0.005249632484688,0.00378837965404033,0.999971090844978,-0.00793723681640336,-0.0105293748458248,0.00753515442623526,0,0.657400685000779,static_reference,static_reference
2139462,0.7254176,0.0145215275013154,0.710896072498685,Nausicaa,Nausicaa,0.000625682522069558,0.0666997876780604,1.20892978288158,-0.00415772092328979,-0.00532385825941726,0.00388442857344562,0.999969640091446,-0.00827439539424347,-0.0106798970190854,0.00772486842100602,0,0.673900372498685,static_reference,static_reference
2139466,0.7414733,0.0149830499993405,0.726490250000659,Nausicaa,Nausicaa,0.000661773420447445,0.0667171765111204,1.20887329059653,-0.00393756848365764,-0.00535346546715712,0.00386261845861919,0.99997045763391,-0.00783407924099041,-0.0107372395875072,0.00768336791092695,0,0.68949455000066,static_reference,static_reference
2139469,0.7572035,0.0156209325002207,0.741582567499779,Nausicaa,Nausicaa,0.000649336373350415,0.0667303416762187,1.20890421097619,-0.00408177428798322,-0.0051388458398795,0.00384634378120805,0.999971068092279,-0.00812430192280537,-0.010308976737612,0.00765099497292179,0,0.704586867499779,static_reference,static_reference
2139472,0.7728453,0.0154744800005822,0.757370819999418,Nausicaa,Nausicaa,0.000646251436766545,0.066714337672408,1.20891773181213,-0.00401384358451811,-0.00519454401883863,0.0038606179571051,0.99997100028006,-0.00798786464936448,-0.0104199671484801,0.00767980422988668,0,0.720375119999418,static_reference,static_reference
2139475,0.7889405,0.0153803950009535,0.773560104999047,Nausicaa,Nausicaa,0.000621556418326851,0.0666921703691112,1.2088925807752,-0.00407373494642961,-0.00518005632358041,0.00384366129818655,0.999970898560501,-0.00810793859610676,-0.0103913142746666,0.00764538177637665,0,0.736564404999047,static_reference,static_reference
2139478,0.8032355,0.0149713124991206,0.788264187500879,Nausicaa,Nausicaa,0.000636615970757574,0.0667007161481829,1.20889828885158,-0.00410108846310925,-0.00513874223816841,0.00384175573339661,0.999971007236966,-0.00816297993643608,-0.010308879855532,0.00764162024000782,0,0.751268487500879,static_reference,static_reference
2139484,0.8344054,0.0150760174997655,0.819329382500234,Nausicaa,Nausicaa,0.000636962248586494,0.0667252586505446,1.20892367091408,-0.00402385827173815,-0.00519765890461624,0.00386340071725112,0.999970933098267,-0.00800784217552413,-0.0104262961054162,0.00768524092103123,0,0.782333682500234,static_reference,static_reference
2139487,0.8488796,0.0146104724989042,0.834269127501096,Nausicaa,Nausicaa,0.000616821844045765,0.0667035914432483,1.20888766932031,-0.00404044011446164,-0.0051691287187886,0.00386791975807559,0.999970996653761,-0.00804117726671136,-0.0103693996161473,0.00769433361830799,0,0.797273427501096,static_reference,static_reference
2139490,0.8648571,0.014747865000646,0.850109234999354,Nausicaa,Nausicaa,0.000642786253887574,0.0667563072888126,1.2089246814221,-0.00410110383868709,-0.00536757470360301,0.00382532039201085,0.999969868052535,-0.00816145875794418,-0.0107664100064483,0.00760689852527099,0,0.813113534999354,static_reference,static_reference
2139494,0.8806836,0.0144639699992995,0.866219630000701,Nausicaa,Nausicaa,0.000650414723056723,0.0666898259866565,1.20889227705873,-0.00397378948392538,-0.00528157061021597,0.00392278186306621,0.999970462459508,-0.00790643337998071,-0.0105942040059644,0.0078038734313728,0,0.829223930000701,static_reference,static_reference
2139497,0.8968774,0.0154612649991181,0.881416135000882,Nausicaa,Nausicaa,0.000617754758569216,0.0667516408413636,1.20892443014137,-0.00414444702547503,-0.00539220197436704,0.00381841735464336,0.999969583240224,-0.00824803852949105,-0.0108159372606046,0.00759242406390047,0,0.844420435000882,static_reference,static_reference
2139500,0.91139,0.0153962300004196,0.89599376999958,Nausicaa,Nausicaa,0.000645478323035326,0.0667478012108183,1.20889082534766,-0.00402616379878139,-0.00522462318944315,0.0038019322209823,0.999971018894538,-0.00801289265185733,-0.0104797497742265,0.00756206101281985,0,0.858998069999581,static_reference,static_reference
2139503,0.9296059,0.0150238999995261,0.914582000000474,Nausicaa,Nausicaa,0.000656133622932281,0.0667399432939636,1.20888032594952,-0.0040316514833015,-0.00525067189696291,0.0037756176776939,0.99997096004939,-0.00802395083549661,-0.0105316774725565,0.00750916531638554,0,0.877586300000474,static_reference,static_reference
2139506,0.9428542,0.0149615074992167,0.927892692500783,Nausicaa,Nausicaa,0.000643008720497931,0.0667121116367565,1.20891438696862,-0.00409095307074733,-0.00514852991982215,0.00383184352605639,0.999971036439471,-0.00814273672421191,-0.010328297009537,0.00762182060674642,0,0.890896992500783,static_reference,static_reference
2139509,0.9578941,0.0147236599996073,0.943170440000393,Nausicaa,Nausicaa,0.000636152792033434,0.0667065984070807,1.20890208784203,-0.0040623150931363,-0.00520268698844818,0.00388090154067555,0.999970683693985,-0.00808453813889762,-0.0104367892924885,0.00771980274119602,0,0.906174740000393,static_reference,static_reference
2139512,0.9723172,0.0155067624997006,0.956810437500299,Nausicaa,Nausicaa,0.000664676515194511,0.066750852326214,1.20891034262803,-0.00396175483945517,-0.00527516239091829,0.0038178656761047,0.999970950109062,-0.00788352269557876,-0.0105804665978859,0.0075942097938384,0,0.9198147375003,static_reference,static_reference
2139515,0.9873511,0.0153554274985832,0.971995672501417,Nausicaa,Nausicaa,0.000630478628362798,0.0667252817577654,1.20894094920975,-0.00418052370116038,-0.00531158921754533,0.00387487148219605,0.999969647345641,-0.0083201984885871,-0.0106554556109138,0.00770561097914956,0,0.934999972501417,static_reference,static_reference
2139518,1.0019972,0.0153612575004027,0.986635942499597,Nausicaa,Nausicaa,0.000662977358888027,0.0667193424123067,1.20888024000925,-0.0040334532838195,-0.00522645604799025,0.00383417147323313,0.999970856845788,-0.00802712053496598,-0.0104837294091076,0.00762645116148563,0,0.949640242499597,static_reference,static_reference
2139521,1.0173556,0.0152746224996294,1.00208097750037,Nausicaa,Nausicaa,0.000665348225970969,0.0667173212102041,1.208875644463,-0.00403963609550236,-0.0052418154463081,0.00384573793766016,0.999970707076341,-0.00803924921066999,-0.0105145883017174,0.00764939795166276,0,0.965085277500371,static_reference,static_reference
2139524,1.0330336,0.0151597524994458,1.01787384750055,Nausicaa,Nausicaa,0.000659516478428287,0.0667238844860181,1.20885990649795,-0.00390659719068769,-0.0053667513585284,0.00386643555694061,0.999970493141838,-0.00777199188858051,-0.0107636030529557,0.00769123282436616,0,0.980878147500554,static_reference,static_reference
2139527,1.0486322,0.0148874124996247,1.03374478750038,Nausicaa,Nausicaa,0.000618785186006048,0.066742500786279,1.20894491105699,-0.00411155037939476,-0.00533416393393964,0.00387286743345904,0.999969820917835,-0.00818209524664694,-0.0107000570625979,0.00770215479874881,0,0.996749087500375,static_reference,static_reference
2139530,1.0646244,0.0151620200005013,1.0494623799995,Nausicaa,Nausicaa,0.000642959357861435,0.0667550511852173,1.20889309490434,-0.00400438942464248,-0.00527800973832447,0.00382203613074759,0.999970749331376,-0.00796872997194046,-0.0105865182932656,0.00760207746791872,0,1.0124666799995,static_reference,static_reference
2139533,1.0803069,0.0154886775009565,1.06481822249904,Nausicaa,Nausicaa,0.000655819674535319,0.0667333765518055,1.20890128448771,-0.00396459003774436,-0.00525628811499204,0.00381088336802298,0.9999710648959,-0.00788940872295022,-0.0105426845269457,0.00758036200506507,0,1.02782252249904,static_reference,static_reference
2139537,1.0966518,0.0156594574995824,1.08099234250042,Nausicaa,Nausicaa,0.000655617307479681,0.0667056564943137,1.20892206899187,-0.00414174830723908,-0.00535641898402536,0.00392150405681279,0.999969387782726,-0.00824180169413482,-0.0107452005609972,0.00779892742296489,0,1.04399664250042,static_reference,static_reference
2139540,1.1117556,0.0154786825010849,1.09627691749892,Nausicaa,Nausicaa,0.00061626427107582,0.0667335318382294,1.20893345999277,-0.00410477132420463,-0.00535834743760914,0.00390261968378528,0.999969603800394,-0.00816803257667374,-0.0107486148194127,0.0077615388107073,0,1.05928121749892,static_reference,static_reference
2139543,1.1278464,0.0149816524986214,1.11286474750138,Nausicaa,Nausicaa,0.000651488764520434,0.0667373394401232,1.2088900635939,-0.00401878452922453,-0.00521856925621987,0.00380907129533039,0.999971053021883,-0.00799810403647827,-0.0104676432206806,0.00757646501730563,0,1.07586904750138,static_reference,static_reference
2139546,1.1432954,0.0148769774996263,1.12841842250037,Nausicaa,Nausicaa,0.000667779634751321,0.0667519413738992,1.20889924482828,-0.00399415234979929,-0.00525375715128306,0.00381047398907258,0.999970962113791,-0.00794855914339175,-0.0105378434439008,0.00757925144925972,0,1.09142272250037,static_reference,static_reference
2139549,1.1597663,0.0149543975007355,1.14481190249926,Nausicaa,Nausicaa,0.000652206169741002,0.0667024739494161,1.20890121441544,-0.00408772054131311,-0.00515970540264329,0.00384123678235385,0.999970956018682,-0.00813608992669757,-0.0103506997163131,0.0076405511925653,0,1.10781620249926,static_reference,static_reference
2139552,1.1758066,0.0146863500000773,1.16112024999992,Nausicaa,Nausicaa,0.000614984284327573,0.0667162844019918,1.20890030898828,-0.00408492526818244,-0.00514588295084266,0.00383890817586251,0.999971047609993,-0.00813062764719292,-0.0103230145802127,0.00763603403206437,0,1.12412454999992,static_reference,static_reference
2139558,1.2043617,0.0154711475002564,1.18889055249974,Nausicaa,Nausicaa,0.000666283537933176,0.0667384055892478,1.20889253883317,-0.00398062341633002,-0.00527119675796241,0.00382807069181458,0.999970857073712,-0.00792118334572452,-0.0105727594705204,0.00761445211939445,0,1.15189485249974,static_reference,static_reference
2139564,1.2339059,0.0153030175000263,1.21860288249997,Nausicaa,Nausicaa,0.000648810561038776,0.0667382051570595,1.20888382100469,-0.00398171129102271,-0.00523428053871965,0.00380786274969285,0.999971123814941,-0.00792384939611247,-0.0104987752744745,0.00757431265031892,0,1.18160718249997,static_reference,static_reference
2139567,1.2489036,0.0153976774985172,1.23350592250148,Nausicaa,Nausicaa,0.000653959187052287,0.0667122186918486,1.20885499417268,-0.00398643434991203,-0.00532601378743524,0.00385040343362142,0.999970457719481,-0.00793215433269479,-0.0106826148297775,0.00765862761413248,0,1.19651022250148,static_reference,static_reference
2139570,1.2644487,0.0145957774991854,1.24985292250081,Nausicaa,Nausicaa,0.000675675073612642,0.0667303513949876,1.20889656640707,-0.00402278446058863,-0.00523334606362476,0.00383260950873295,0.999970869774973,-0.00800574641603458,-0.0104974155481079,0.00762338434562799,0,1.21285722250081,static_reference,static_reference
2139574,1.2821071,0.0147333325016171,1.26737376749838,Nausicaa,Nausicaa,0.000647022440952909,0.0667525109837633,1.2089056994123,-0.00397154824797271,-0.00525304877830549,0.00382219624847264,0.999971011129265,-0.00790323082014531,-0.0105363480173816,0.00760294067956158,0,1.23037806749838,static_reference,static_reference
2139579,1.3113554,0.0151108299990848,1.29624457000092,Nausicaa,Nausicaa,0.00065042349597428,0.0667345878043732,1.20893710189548,-0.00409588040800438,-0.00540478986192021,0.00392587340045887,0.999969299292871,-0.00814964144073089,-0.0108416200653897,0.00780776918553256,0,1.25924887000092,static_reference,static_reference
2139582,1.325952,0.0153771599989918,1.31057484000101,Nausicaa,Nausicaa,0.000650728138367627,0.0666987617976708,1.20890602049103,-0.00408377257977117,-0.00516709101465099,0.00385047800711246,0.999970898472091,-0.00812804207281628,-0.0103655158594348,0.00765901578515422,0,1.27357914000101,static_reference,static_reference
2139585,1.3409672,0.0152408875012178,1.32572631249878,Nausicaa,Nausicaa,0.000649140887384935,0.0667330623674,1.20887759918243,-0.00399919419533741,-0.00522194588177274,0.00379439678739563,0.999971169724415,-0.00795905012979283,-0.0104741312364259,0.00754729327662905,0,1.28873061249878,static_reference,static_reference
2139589,1.35813,0.0153360774990301,1.34279392250097,Nausicaa,Nausicaa,0.000651718324158114,0.0667372657073312,1.20888385785408,-0.00406568446542627,-0.00521867649636602,0.00379722729052478,0.999970907922004,-0.00809203104232621,-0.0104681171887021,0.0075522842392467,0,1.30579822250097,static_reference,static_reference
2139592,1.3719757,0.0153406700000468,1.35663502999995,Nausicaa,Nausicaa,0.000673705824845467,0.0667249118603066,1.20893340067417,-0.00403702751402794,-0.00516386403628932,0.00389172567094244,0.999970945272095,-0.00803414524650602,-0.0103590352801528,0.00774202460363378,0,1.31963932999995,static_reference,static_reference
2139595,1.3874086,0.0153077374989856,1.37210086250101,Nausicaa,Nausicaa,0.000628418778539812,0.066679103180482,1.20887544372362,-0.00404043855069792,-0.00523886539699991,0.00392122617002303,0.99997042612819,-0.00804008317482153,-0.0105093013233207,0.00780039563536811,0,1.33510516250101,static_reference,static_reference
2139598,1.4020883,0.0154976050003623,1.38659069499964,Nausicaa,Nausicaa,0.000662725969600821,0.0667002003500648,1.20885457189339,-0.00392082768397537,-0.0053325706299948,0.00386580557686172,0.999970622742484,-0.00780072090788234,-0.010695346168816,0.00769008346154563,0,1.34959499499964,static_reference,static_reference
2139601,1.4177205,0.0152145050002017,1.4025059949998,Nausicaa,Nausicaa,0.000647832890211793,0.0667534689241137,1.20893365273387,-0.00413616653912346,-0.00537868011485287,0.00381939334716575,0.999969686621071,-0.00823156774877536,-0.0107888387322226,0.00759457590152481,0,1.3655102949998,static_reference,static_reference
2139604,1.4332357,0.0150973625014893,1.41813833749851,Nausicaa,Nausicaa,0.000638548245036275,0.0667427682523544,1.20888616079648,-0.00404360260864117,-0.00524578350190218,0.00379048778637228,0.999970881193916,-0.00804773393331635,-0.0105221101123147,0.00753881982751317,0,1.38114263749851,static_reference,static_reference
2139607,1.4486672,0.0145672950006695,1.43409990499933,Nausicaa,Nausicaa,0.000640893508075253,0.0667695773503569,1.20894479932591,-0.00410540523615522,-0.00542434109241662,0.00384858742155916,0.999969454806705,-0.00816938196594981,-0.0108801654924134,0.00765292915682856,0,1.39710420499933,static_reference,static_reference
2139610,1.4657295,0.0148789125007069,1.45085058749929,Nausicaa,Nausicaa,0.000652657665700158,0.0667439226766508,1.20888228313897,-0.00403614086769346,-0.00524851095705795,0.00379727463325329,0.999970871278254,-0.00803271803193798,-0.010527563279792,0.00755245089534381,0,1.41385488749929,static_reference,static_reference
2139613,1.4806721,0.0147125050003059,1.46595959499969,Nausicaa,Nausicaa,0.000675561702983091,0.0666879078100633,1.20891503865053,-0.00399950796828989,-0.00521216046887331,0.00390335743365146,0.999970800133686,-0.0079586115245412,-0.0104554300572417,0.00776529722596643,0,1.42896389499969,static_reference,static_reference
2139617,1.4969655,0.0145368075006638,1.48242869249934,Nausicaa,Nausicaa,0.000621280101303155,0.066721881820342,1.20895146727057,-0.00414660544568044,-0.00533390412366126,0.00389542933063391,0.999969589917817,-0.00825196902717529,-0.0106999936276481,0.00774690749903062,0,1.44543299249934,static_reference,static_reference
2139623,1.5265979,0.0151896650003173,1.51140823499968,Nausicaa,Nausicaa,0.000657641249884795,0.066739385309924,1.20888728724635,-0.00400694484666857,-0.00522804328101146,0.00379140898642338,0.999971118170093,-0.00797453790427536,-0.0104863606900615,0.00754118810307925,0,1.47441253499968,static_reference,static_reference
2139626,1.5426561,0.0152514750014633,1.52740462499854,Nausicaa,Nausicaa,0.00066368144916311,0.066732959171085,1.20889825221634,-0.00397502279534495,-0.00523872640172969,0.00380249986158346,0.999971147550902,-0.00791049488718129,-0.0105075739047892,0.00756362184200128,0,1.49040892499854,static_reference,static_reference
2139629,1.5592248,0.0150952525017834,1.54412954749822,Nausicaa,Nausicaa,0.000656612510790035,0.0667198766577108,1.20898123084721,-0.00415831926964192,-0.00530437697452739,0.00391894518106939,0.999969606455332,-0.00827537361771014,-0.0106412247885012,0.00779405774005296,0,1.50713384749822,static_reference,static_reference
2139632,1.5748309,0.014990179998937,1.55984072000106,Nausicaa,Nausicaa,0.00065632430128567,0.0667393263674148,1.20886475612456,-0.00407418421595724,-0.00522102146863288,0.0037911183459114,0.99997088426588,-0.00810907772984251,-0.0104728217806968,0.00753995804862033,0,1.52284502000106,static_reference,static_reference
2139635,1.5900693,0.0150526199999623,1.57501668000004,Nausicaa,Nausicaa,0.000673889561887012,0.0667444488921756,1.20892386503572,-0.00402429253452821,-0.00517701807239054,0.00383849258537149,0.99997113434746,-0.00800912633728428,-0.0103848183593833,0.00763558181393717,0,1.53802098000004,static_reference,static_reference
2139639,1.6056349,0.0144632575013731,1.59117164249863,Nausicaa,Nausicaa,0.000640660695296006,0.0666772140470341,1.20887987540364,-0.00405044864383061,-0.00525267505122532,0.00391920135672799,0.99997032112524,-0.00806001898277029,-0.0105369823453793,0.00779613045750085,0,1.55417594249863,static_reference,static_reference
2139642,1.6231152,0.0147893199998477,1.60832588000015,Nausicaa,Nausicaa,0.000645238564027509,0.0667510846140194,1.20892796052339,-0.00412902040863341,-0.00538316399653845,0.00383755450779757,0.999969622494229,-0.00821704507847213,-0.0107979014490631,0.00763094039143985,0,1.57133018000015,static_reference,static_reference
2139645,1.6370788,0.0151479574995123,1.62193084250049,Nausicaa,Nausicaa,0.000642133721215292,0.0667186751637227,1.2089176539762,-0.00399291866927189,-0.00519751690510629,0.00386791958028703,0.999971040388992,-0.00794591437312533,-0.0104258102262745,0.00769460272202872,0,1.58493514250049,static_reference,static_reference
2139648,1.6514373,0.0145809199999934,1.63685638000001,Nausicaa,Nausicaa,0.000655512237997293,0.0667190067453156,1.20895576062524,-0.00414238631537056,-0.00534448211429989,0.00391846427732368,0.999969460925808,-0.00824320240483936,-0.0107213067779173,0.00779293815643625,0,1.59986068000001,static_reference,static_reference
2139651,1.666538,0.0147955924995956,1.6517424075004,Nausicaa,Nausicaa,0.000661450509357002,0.0667095968949386,1.20890310942786,-0.00404500854737682,-0.00516494739515733,0.00389308833028229,0.999970902120412,-0.00805008554941124,-0.0103612747532886,0.0077446587167874,0,1.6147467075004,static_reference,static_reference
2139654,1.6816107,0.0149842849995696,1.66662641500043,Nausicaa,Nausicaa,0.000637016283552027,0.0667572311556837,1.20892483997905,-0.00412151019016282,-0.0053966854333287,0.00383633791704024,0.999969585263208,-0.00820193514549726,-0.0108248770056922,0.0076284784077229,0,1.62963071500043,static_reference,static_reference
2139657,1.6970238,0.0153314975004492,1.68169230249955,Nausicaa,Nausicaa,0.000637931698428713,0.0667116995685709,1.20892082872731,-0.00396721323905366,-0.00520790308496515,0.00389181571639916,0.999970995946884,-0.0078941726813101,-0.0104465734012852,0.0077425837792868,0,1.64469660249955,static_reference,static_reference
2139660,1.7126436,0.0155409025002646,1.69710269749974,Nausicaa,Nausicaa,0.000647359257967516,0.0667204875189249,1.20890167308247,-0.00400149385571336,-0.00517353054998066,0.00386141150149252,0.999971155648895,-0.00796331558963673,-0.0103778517555954,0.00768168573898039,0,1.66010699749974,static_reference,static_reference
2139663,1.7286932,0.015463897499833,1.71322930250017,Nausicaa,Nausicaa,0.000657058488150022,0.0667506365146198,1.20888962957402,-0.00396135504638738,-0.00526705985201483,0.00385393775198915,0.999970856030572,-0.007882402844091,-0.0105645428457345,0.00766642439021689,0,1.67623360250017,static_reference,static_reference
2139666,1.7442917,0.0149603824996013,1.7293313175004,Nausicaa,Nausicaa,0.000654588790333599,0.0667082583365101,1.20889631060812,-0.00399297923636362,-0.00526128616666561,0.00389638580499449,0.999970596148881,-0.00794524970039342,-0.0105535752092505,0.0077510353101265,0,1.6923356175004,static_reference,static_reference
2139669,1.7606096,0.0152723799991007,1.7453372200009,Nausicaa,Nausicaa,0.00065123398004592,0.0666938122381157,1.20891130907543,-0.00401371254809552,-0.00524321635969497,0.00392676413575734,0.999970489223161,-0.00798653710201313,-0.0105178389830573,0.00781171850702992,0,1.7083415200009,static_reference,static_reference
2139673,1.7758805,0.0148974600000728,1.76098303999993,Nausicaa,Nausicaa,0.00057973412652528,0.0666973822280774,1.20890251787485,-0.00424607101209531,-0.00541153917725802,0.0040432007429975,0.999968168819611,-0.00844871030160802,-0.010857282587312,0.00804074908504646,0,1.72398733999993,static_reference,static_reference
2139675,1.7897843,0.0155264775006564,1.77425782249934,Nausicaa,Nausicaa,0.000668425506513497,0.0667325193270549,1.20889857003887,-0.00400615127898168,-0.00523148914529862,0.00389584799803092,0.999970701891625,-0.00797182901732206,-0.0104940790682375,0.00775005575436977,0,1.73726212249934,static_reference,static_reference
2139679,1.8059148,0.0149960550003817,1.79091874499962,Nausicaa,Nausicaa,0.000643635073723635,0.0667377650141573,1.20888750904688,-0.00405918307941072,-0.00549200460313496,0.00387800301105814,0.99996916052987,-0.00807609752389777,-0.0110153762772025,0.00771172501867079,0,1.75392304499962,static_reference,static_reference
2139682,1.8213443,0.0146905124994161,1.80665378750058,Nausicaa,Nausicaa,0.000657684623237361,0.0667411325592929,1.20888809990498,-0.00400040538391396,-0.00527134128675277,0.00382561735832236,0.999970786758109,-0.00796077381980028,-0.0105731796267296,0.00760933495132926,0,1.76965808750058,static_reference,static_reference
2139684,1.8372982,0.0150633975006026,1.8222348024994,Nausicaa,Nausicaa,0.000675459764711085,0.0667174781591348,1.20887919124068,-0.00393284429848698,-0.00535402956790617,0.00387145480144509,0.99997043903349,-0.00782453128012791,-0.0107384006319064,0.0077010877165999,0,1.7852391024994,static_reference,static_reference
2139687,1.8513089,0.0154544124990874,1.83585448750091,Nausicaa,Nausicaa,0.000633844945749481,0.0666853287795403,1.20888551341222,-0.00404521100171274,-0.00523956288020246,0.00390222692673854,0.999970477501105,-0.00804982279691102,-0.0105105805732898,0.00776233987688147,0,1.79885878750091,static_reference,static_reference
2139691,1.8674236,0.0156645799989019,1.8517590200011,Nausicaa,Nausicaa,0.000649325406279396,0.0667328945369705,1.20884816296518,-0.00399455104365304,-0.00530502634431566,0.00383468627566958,0.999970597287047,-0.00794871464027434,-0.0106405772143223,0.00762727038548742,0,1.8147633200011,static_reference,static_reference
2139694,1.8819575,0.0154113849991647,1.86654611500084,Nausicaa,Nausicaa,0.000652578190764173,0.0667319550575266,1.20888287421826,-0.00400226776926252,-0.00526105040158971,0.00381578123174904,0.999970871083236,-0.00796467999664164,-0.010552533709101,0.00758972333802375,0,1.82955041500084,static_reference,static_reference
2139697,1.8977041,0.0152993800007146,1.88240471999929,Nausicaa,Nausicaa,0.000652371123267926,0.0667168398513615,1.20890610809836,-0.00409111026580787,-0.00512847496692765,0.00382798382565653,0.999971153634512,-0.0081432420221271,-0.0102881569586957,0.00761426102913622,0,1.84540901999929,static_reference,static_reference
2139700,1.9142415,0.0153133400006318,1.89892815999937,Nausicaa,Nausicaa,0.000665579498945443,0.066679599553828,1.20890702613901,-0.00401666712919405,-0.00527869000470765,0.00396985482115551,0.999970120588464,-0.00799171607671217,-0.01058915362468,0.00789759179542324,0,1.86193245999937,static_reference,static_reference
2139706,1.9442203,0.0150103100014412,1.92920998999856,Nausicaa,Nausicaa,0.00063899348033464,0.0667635080841739,1.20892363665472,-0.00409183400319789,-0.00540720388295943,0.00384394232846561,0.999969621112579,-0.00814241829541924,-0.0108457494142682,0.00764392435415521,0,1.89221428999856,static_reference,static_reference
2139709,1.960173,0.0146432725002977,1.9455297274997,Nausicaa,Nausicaa,0.000665497587522712,0.0667112523455872,1.20884679264809,-0.00398493303028489,-0.00534543981523356,0.00385504972967005,0.99997034214696,-0.00792895460766513,-0.010721492197379,0.00766778419141661,0,1.9085340274997,static_reference,static_reference
2139712,1.9759975,0.014743927499972,1.96125357250003,Nausicaa,Nausicaa,0.00065485563710352,0.0667390752949687,1.20892200345606,-0.00413884242427211,-0.00537503300699887,0.00384784551379294,0.999969586081728,-0.00823664036325589,-0.010781799205981,0.00765148352467025,0,1.92425787250003,static_reference,static_reference
2139716,1.990576,0.0148383374999413,1.97573766250006,Nausicaa,Nausicaa,0.000634577384217724,0.0667326726170986,1.20888620776098,-0.00404236626188969,-0.00520516414505028,0.00380108724436819,0.999971058219681,-0.00804545328932089,-0.0104409474698052,0.00756035621426588,0,1.93874196250006,static_reference,static_reference
2139718,2.0055477,0.0150393499990802,1.99050835000092,Nausicaa,Nausicaa,0.000672676483451826,0.0667270143126228,1.20893709855673,-0.00415071610140161,-0.00535707453479348,0.00390117312149176,0.999969426610909,-0.00825995151612148,-0.0107464136670492,0.00775816210207918,0,1.95351265000092,static_reference,static_reference
2139721,2.0206006,0.0145337925004629,2.00606680749954,Nausicaa,Nausicaa,0.00065084196288452,0.0667309797038337,1.20893559118008,-0.00406725836767645,-0.00540349407546138,0.00393905963925028,0.999969371266093,-0.00809226187190367,-0.0108389117213864,0.00783446350850458,0,1.96907110749954,static_reference,static_reference
2139725,2.0398114,0.0153282175016571,2.02448318249834,Nausicaa,Nausicaa,0.000634844875441737,0.0667175802028245,1.2089199025574,-0.00410467042566555,-0.00513622106476151,0.00383827356521572,0.999971018865002,-0.00817019909079006,-0.0103038364422471,0.00763463910701898,0,1.98748748249834,static_reference,static_reference
2139730,2.0655512,0.0151215149999312,2.05042968500007,Nausicaa,Nausicaa,0.000674089320223246,0.0667265499327612,1.20889657305388,-0.00401589819842238,-0.00528460973664839,0.0038619384798197,0.999970515011702,-0.00799127590968896,-0.0106001246521058,0.0076817114199205,0,2.01343398500007,static_reference,static_reference
2139733,2.0819519,0.0155210874993416,2.06643081250066,Nausicaa,Nausicaa,0.00064367270616466,0.0666986191094057,1.20890060058203,-0.00398153733207502,-0.00526344768250856,0.00392058150783222,0.999970535825735,-0.00792209288630536,-0.0105580012334304,0.00779953253684554,0,2.02943511250066,static_reference,static_reference
2139739,2.1122156,0.0157518400007219,2.09646375999928,Nausicaa,Nausicaa,0.000681121643631989,0.0666884624652244,1.20888235454121,-0.00403809937825974,-0.00520220146072176,0.00394202056095847,0.999970545229843,-0.00803547055037415,-0.0104361224402957,0.00784230232662776,0,2.05946805999928,static_reference,static_reference
2139745,2.1428565,0.0150654749991947,2.12779102500081,Nausicaa,Nausicaa,0.000676465123912747,0.0667140169887405,1.20891217973131,-0.00404858602607101,-0.00551203296234169,0.00390782637774103,0.999968977187199,-0.0080544200256937,-0.0110555914819479,0.00777133155573552,0,2.09079532500081,static_reference,static_reference
2139752,2.1719761,0.0149475475006179,2.15702855249938,Nausicaa,Nausicaa,0.000650624279908721,0.0667595069441817,1.2089044510934,-0.00406862841004498,-0.0055175961881956,0.00389491263966437,0.999968915542225,-0.00809460684046728,-0.0110667691539136,0.00774523676023754,0,2.12003285249938,static_reference,static_reference
2139758,2.2022962,0.015290847499812,2.18700535250019,Nausicaa,Nausicaa,0.00063892880213176,0.0666757216373179,1.20887980711211,-0.00402385177398514,-0.00521528314102443,0.00390158040364921,0.99997069312506,-0.00800729576048074,-0.0104618501982839,0.00776146373284266,0,2.15000965250019,static_reference,static_reference
2139764,2.2325384,0.0149008549987907,2.21763754500121,Nausicaa,Nausicaa,0.000656846691698237,0.0667186321629274,1.20890337173302,-0.0040051233302727,-0.00521859295357877,0.00384874664801171,0.999970955790184,-0.00797036498897272,-0.0104679033498525,0.00765596175292125,0,2.18064184500121,static_reference,static_reference
2139770,2.2621893,0.0148828274996687,2.24730647250033,Nausicaa,Nausicaa,0.000633577489182284,0.0667369048479869,1.20887222840792,-0.00404629596625075,-0.0052351709474614,0.00379835247768726,0.999970896072761,-0.00805311740246483,-0.0105009686733108,0.00755460613526875,0,2.21031077250033,static_reference,static_reference
2139771,2.2778523,0.0151549275015624,2.26269737249844,Nausicaa,Nausicaa,0.000636641516198619,0.0667201390434831,1.20889931483658,-0.00408629958667717,-0.00546104459950624,0.00388147379125045,0.999969206180259,-0.00813053103753696,-0.0109536936379256,0.00771861728872462,0,2.22570167249844,static_reference,static_reference
2139779,2.3114793,0.0164093899996055,2.29506991000039,Nausicaa,Nausicaa,0.000639451429813629,0.066783077808283,1.20892431485794,-0.00407096898189242,-0.00542830588936519,0.0038380392750419,0.999969614618986,-0.00810059118235767,-0.0108877460838907,0.00763217483695909,0,2.25807421000039,static_reference,static_reference
2139785,2.3385964,0.0171947225004939,2.32140167749951,Nausicaa,Nausicaa,0.000682969191227793,0.0666897980102292,1.20886634292946,-0.00396762361106002,-0.00532981586013441,0.00388558594561323,0.999970376185033,-0.00789412630014762,-0.0106903526472972,0.00772916687956263,0,2.28440597749951,static_reference,static_reference
2139791,2.3687453,0.0159163474998207,2.35282895250018,Nausicaa,Nausicaa,0.000608523410753806,0.0667345137940667,1.20894758012459,-0.00420726659006962,-0.00530889658795008,0.00388868872265073,0.999969495847187,-0.00837355996312041,-0.0106503921354334,0.00773298395807418,0,2.31583325250018,static_reference,static_reference
2139797,2.4004512,0.0168616750008216,2.38358952499918,Nausicaa,Nausicaa,0.000653407004911345,0.0667541434903578,1.20892487114929,-0.00411800785838553,-0.00537363305306863,0.00382412693017925,0.999969770609248,-0.00819523561958109,-0.0107786455001845,0.00760428033922831,0,2.34659382499918,static_reference,static_reference
2139798,2.4158008,0.0163293750003352,2.39947142499966,Nausicaa,Nausicaa,0.000665202778223884,0.0667275887615887,1.20887239602968,-0.00390742487113208,-0.00537069384635008,0.0038540970367721,0.999970516372616,-0.00777375023570604,-0.0107713984740265,0.00766651548037816,0,2.36247572499967,static_reference,static_reference
2139804,2.4313194,0.0150467450013725,2.41627265499863,Nausicaa,Nausicaa,0.000648762862661403,0.0667504271137806,1.20887884736835,-0.00398909352606263,-0.00526948672744576,0.00381064520166309,0.999970898889371,-0.00793832134759987,-0.0105692655791766,0.00757952358114793,0,2.37927695499863,static_reference,static_reference
2139807,2.4476065,0.0153535599991224,2.43225294000088,Nausicaa,Nausicaa,0.000638897550373925,0.0667257010353463,1.20890027407615,-0.00400017220513877,-0.00521768900960699,0.00390237740436126,0.999970772470037,-0.00795990783773106,-0.0104664844769451,0.00776328658148474,0,2.39525724000088,static_reference,static_reference
2139810,2.462823,0.0154158375012871,2.44740716249871,Nausicaa,Nausicaa,0.00066501264390303,0.0667070768318204,1.20886369714114,-0.0040033572269639,-0.00533613680677086,0.00389346241482021,0.999970169417727,-0.00796546400341946,-0.0107033334587443,0.00774448863339712,0,2.41041146249871,static_reference,static_reference
2139813,2.4772057,0.0159040400010505,2.46130165999895,Nausicaa,Nausicaa,0.00064826035428921,0.0667356836051384,1.20894925247592,-0.004228662431819,-0.00527341027859834,0.00385579874078224,0.999969720728654,-0.00841697275950194,-0.0105793082910846,0.00766726921751557,0,2.42430595999895,static_reference,static_reference
2139815,2.4919688,0.0162861725005054,2.47568262749949,Nausicaa,Nausicaa,0.000638535050697714,0.0666821140428456,1.20888736382763,-0.00401787438812951,-0.00525616939071029,0.00392220056562258,0.999970422418314,-0.00799480914870413,-0.0105437410279539,0.00780244471455492,0,2.43868692749949,static_reference,static_reference
2139819,2.5068578,0.0166540400001685,2.49020375999983,Nausicaa,Nausicaa,0.000667977669247005,0.0667223002524172,1.20887001707969,-0.00392459843086805,-0.00531157791831268,0.00384557596995647,0.999970797679929,-0.00780863794671138,-0.0106532318057928,0.00764974440975857,0,2.45320805999983,static_reference,static_reference
2139822,2.5220761,0.0166263225013585,2.50544977749864,Nausicaa,Nausicaa,0.000630976886613982,0.0667005213192178,1.20889475821036,-0.00400392041580044,-0.00521579190279301,0.00386284037579347,0.999970920877383,-0.00796783281384288,-0.0104624043465753,0.00768418503972887,0,2.46845407749864,static_reference,static_reference
2139825,2.5367111,0.0164511649999465,2.52025993500005,Nausicaa,Nausicaa,0.000663272080943992,0.0667325521505548,1.20885899693299,-0.00398386639086917,-0.00531774742742593,0.00384818308244289,0.9999705204944,-0.00792710448974103,-0.0106660448553003,0.00765427901484432,0,2.48326423500005,static_reference,static_reference
2139827,2.5520904,0.0167964050002386,2.53529399499976,Nausicaa,Nausicaa,0.000652020668706295,0.0667435011015985,1.20889127881163,-0.00404186540282063,-0.00520783776669415,0.00379768869368991,0.99997105923644,-0.0080444670421966,-0.010446263578246,0.00755354277206541,0,2.49829829499976,static_reference,static_reference
2139831,2.5673085,0.0168930224993263,2.55041547750067,Nausicaa,Nausicaa,0.000624149994355837,0.066691649374196,1.20888804323901,-0.00410548106698079,-0.00513956093461907,0.00383993258425533,0.999970992007446,-0.00817177811477703,-0.0103105359132388,0.0076379218892409,0,2.51341977750067,static_reference,static_reference
2139834,2.5823275,0.0167280699998566,2.56559943000014,Nausicaa,Nausicaa,0.000633640676188996,0.0666924154179903,1.20888556105279,-0.00410858743970118,-0.00517690068870012,0.00384214138806103,0.999970778152074,-0.00817768612319858,-0.0103852570480455,0.00764200521219803,0,2.52860373000014,static_reference,static_reference
2139837,2.5980967,0.0161024574988102,2.58199424250119,Nausicaa,Nausicaa,0.000657133864117759,0.0667487473021778,1.20887891618158,-0.00403790510001056,-0.00525581614549001,0.00380940432804809,0.999970779651942,-0.00803606421099781,-0.0105422844404984,0.00757663457270675,0,2.54499854250119,static_reference,static_reference
2139840,2.6129534,0.0161204199995696,2.59683298000043,Nausicaa,Nausicaa,0.000653829563667111,0.0667516483715922,1.20888382927714,-0.00398672465053222,-0.00525125671316137,0.00380644646988869,0.999971020227469,-0.00793376428109927,-0.0105327543214575,0.00757129399492983,0,2.55983728000043,static_reference,static_reference
2139843,2.6291395,0.0159587449998979,2.6131807550001,Nausicaa,Nausicaa,0.000655374471534858,0.0667257911404877,1.20888783553651,-0.00397988196362558,-0.0052556382586956,0.00381071858113747,0.99997100819471,-0.00792000048045617,-0.0105414994299329,0.00757987628820972,0,2.5761850550001,static_reference,static_reference
2139846,2.6442862,0.0154531299991584,2.62883307000084,Nausicaa,Nausicaa,0.00062630348442789,0.0667190742386459,1.20894423961304,-0.003885097259042,-0.00525600008971044,0.00390328533631826,0.999971022003102,-0.00772944449289499,-0.0105422201222051,0.00776601391604344,0,2.59183737000084,static_reference,static_reference
2139850,2.6604366,0.0149655749994759,2.64547102500052,Nausicaa,Nausicaa,0.000661756923503207,0.0667450351837011,1.20890209921979,-0.00403218017537242,-0.00550458386103185,0.00390121016643571,0.999969110342308,-0.00802173708518042,-0.0110405127092508,0.00775833903589471,0,2.60847532500052,static_reference,static_reference
2139852,2.6760365,0.015524749998709,2.66051175000129,Nausicaa,Nausicaa,0.00065410806740666,0.0667655740674925,1.20888938985137,-0.00403533423857304,-0.00550366573103396,0.00390179770489839,0.999969100380494,-0.00802804606022117,-0.011038705637363,0.00775948663478648,0,2.62351605000129,static_reference,static_reference
2139855,2.6904765,0.0153406500011135,2.67513584999889,Nausicaa,Nausicaa,0.000650918166556385,0.0667338494064026,1.20888335277535,-0.00401035716489259,-0.00524006752943194,0.0037992492118037,0.999971011796404,-0.00798119074595972,-0.0105104974668533,0.00755673838296416,0,2.63814014999889,static_reference,static_reference
2139859,2.7053656,0.0152104725008439,2.69015512749916,Nausicaa,Nausicaa,0.000661680908570232,0.0666973337916329,1.20888002625732,-0.00402517475509399,-0.0052255895268372,0.00385119871604537,0.999970829299904,-0.00801039083174079,-0.0104820696308827,0.00766060069388715,0,2.65315942749916,static_reference,static_reference
2139862,2.7207158,0.0148481374997388,2.70586766250026,Nausicaa,Nausicaa,0.000635201090244499,0.0667172153669275,1.20891478755195,-0.00402427128962243,-0.00519952930087735,0.0038601545383284,0.99997093424888,-0.00800868788515145,-0.0104300140676241,0.00767872916500986,0,2.66887196250026,static_reference,static_reference
2139865,2.7361559,0.0140397774995566,2.72211612250044,Nausicaa,Nausicaa,0.000657518744346375,0.0667214100266022,1.20891804538676,-0.00401025288143789,-0.00518975940326681,0.00385570107598559,0.999971058500383,-0.00798077048425785,-0.0104103311159703,0.00767004529400935,0,2.68512042250044,static_reference,static_reference
2139868,2.7517859,0.0146910175012024,2.7370948824988,Nausicaa,Nausicaa,0.000654309670160905,0.0667395331937798,1.20888164122369,-0.0040294173283833,-0.00525490797336193,0.00380945982345899,0.999970818451238,-0.00801909416368794,-0.010540404233147,0.00757684226237156,0,2.7000991824988,static_reference,static_reference
2139871,2.7665015,0.014732967500827,2.75176853249917,Nausicaa,Nausicaa,0.000634334193760637,0.0667478930381746,1.20889395090876,-0.00409689575539542,-0.00545846918205387,0.00388372217301958,0.999969168155419,-0.00815171938055687,-0.0109486429239355,0.00772301895665782,0,2.71477283249917,static_reference,static_reference
2139874,2.7819674,0.0144919300001233,2.76747546999988,Nausicaa,Nausicaa,0.000651412025219248,0.0667378871603328,1.20888642503932,-0.00397599827768721,-0.00528071971051345,0.00381521222333973,0.999970874372212,-0.00791199715230355,-0.0105916684007859,0.00758870843331189,0,2.73047976999988,static_reference,static_reference
2139877,2.7970441,0.014622027501071,2.78242207249893,Nausicaa,Nausicaa,0.000653244535159862,0.0666964746935258,1.20890304078594,-0.00413238656097236,-0.00513775190223317,0.00383674017664084,0.999970902732434,-0.00822563788201267,-0.0103070970993929,0.00763127414296504,0,2.74542637249893,static_reference,static_reference
2139880,2.8127827,0.0150290049995543,2.79775369500045,Nausicaa,Nausicaa,0.000664371483864152,0.0667107299284606,1.20885045124012,-0.00400791639584824,-0.00528820751702159,0.00385612961332187,0.999970550432275,-0.00797534590415009,-0.0106072125604209,0.00767014941116051,0,2.76075799500045,static_reference,static_reference
2139883,2.8273277,0.0154207100008267,2.81190698999917,Nausicaa,Nausicaa,0.000668277561471147,0.0667281613526633,1.20886646266795,-0.00396805337495493,-0.00532421612741966,0.0038805811168534,0.999970423745241,-0.00789508212660836,-0.0106791169996494,0.00771919595279884,0,2.77491128999917,static_reference,static_reference
2139886,2.8419628,0.0153987400001056,2.82656405999989,Nausicaa,Nausicaa,0.000644983068644176,0.0667589860226325,1.20894613146698,-0.00407146610464719,-0.00541639812164774,0.00383589177117985,0.999969685405246,-0.0081016986448906,-0.0108639169586027,0.00762796972141553,0,2.78956835999989,static_reference,static_reference
2139889,2.8577942,0.0146990575003213,2.84309514249968,Nausicaa,Nausicaa,0.000591678494411269,0.0666918045981598,1.20893554703103,-0.00387072765297853,-0.00526566862503373,0.00390761613607011,0.999971009948539,-0.00770058403527854,-0.0105614789270416,0.0077747537045106,0,2.80609944249968,static_reference,static_reference
2139892,2.8735805,0.0154655775006671,2.85811492249933,Nausicaa,Nausicaa,0.000630931582640688,0.0667063441954669,1.20889373576889,-0.00410058296927127,-0.00516129446204379,0.00385048062568325,0.999970859604288,-0.00816170812249705,-0.010354051552728,0.00765889361993852,0,2.82111922249933,static_reference,static_reference
2139895,2.8886372,0.0158165225002433,2.87282067749976,Nausicaa,Nausicaa,0.000650398302365985,0.0667582979910988,1.20890261077879,-0.00408883004050787,-0.0054940171893804,0.00387609862033949,0.999969036072372,-0.00813539984132822,-0.011019614583796,0.00770757327377395,0,2.83582497749976,static_reference,static_reference
2139898,2.9038429,0.0153934049986272,2.88844949500137,Nausicaa,Nausicaa,0.00063293077668174,0.0667738531133768,1.20893426964898,-0.00410601825325579,-0.00539417848620017,0.00381935604510357,0.999969727527771,-0.00817115252277594,-0.0108196061697105,0.00759470119036504,0,2.85145379500137,static_reference,static_reference
2139901,2.9196125,0.0156036624997584,2.90400883750024,Nausicaa,Nausicaa,0.000657770563484868,0.0667344730157175,1.20888073317239,-0.00403641051640989,-0.00524543789187862,0.00381063849729357,0.99997083547757,-0.00803313969116486,-0.0105215265504956,0.00757920131623765,0,2.86701313750024,static_reference,static_reference
2139904,2.9352037,0.0151766125013999,2.9200270874986,Nausicaa,Nausicaa,0.000657783816780601,0.0667448548699754,1.20892690286523,-0.00404750167410492,-0.00544431796300244,0.00390555313690804,0.999969361424044,-0.00805279635172807,-0.010920134814618,0.0077673363984242,0,2.8830313874986,static_reference,static_reference
2139907,2.9508806,0.0152411675003076,2.93563943249969,Nausicaa,Nausicaa,0.000651445747143024,0.066720555813074,1.20887970814867,-0.00406223607952343,-0.00521854425323251,0.00378100664324999,0.999970984090376,-0.00808530476638757,-0.0104676955091953,0.00751987880206038,0,2.89864373249969,static_reference,static_reference
2139911,2.9656849,0.0148191975010194,2.95086570249898,Nausicaa,Nausicaa,0.000633446000814525,0.0667420588176909,1.20889498428928,-0.0040680360733902,-0.00547194538574653,0.00388943092182762,0.999969190137029,-0.00809383181988026,-0.0109754186304621,0.00773464500345621,0,2.91387000249898,static_reference,static_reference
2139914,2.9808729,0.014854562499204,2.9660183375008,Nausicaa,Nausicaa,0.000639125364179019,0.0667191767428129,1.20889468981482,-0.00410948907828233,-0.0051558841433224,0.00385364438745156,0.999970838766387,-0.00817952933302199,-0.0103433250298412,0.00766517300172389,0,2.9290226375008,static_reference,static_reference
2139917,2.9964575,0.013667342499486,2.98279015750051,Nausicaa,Nausicaa,0.000635281855953702,0.0667321839537298,1.20895034205759,-0.00414217376146876,-0.00534756974298608,0.00391849985784975,0.99996944515982,-0.00824275310600316,-0.0107274806621091,0.00779298640495471,0,2.94579445750051,static_reference,static_reference
2139920,3.0112123,0.0131955924997263,2.99801670750027,Nausicaa,Nausicaa,0.000645856783885625,0.0667307605708953,1.20889711737637,-0.00397576580925322,-0.00526714382945593,0.00380132249294148,0.999970999794201,-0.0079117808338833,-0.0105644050069476,0.0075610366129228,0,2.96102100750027,static_reference,static_reference
2139923,3.0266947,0.0129403949997369,3.01375430500026,Nausicaa,Nausicaa,0.000659219794597781,0.0667487226523047,1.20888620216316,-0.00397696199601441,-0.00525943418708285,0.00380423048294557,0.999971024558085,-0.00791420028512906,-0.0105490177965671,0.00756690059946193,0,2.97675860500026,static_reference,static_reference
2139926,3.0418005,0.0133441275001247,3.02845637249988,Nausicaa,Nausicaa,0.000659267648972368,0.0667596203365825,1.20889193927024,-0.00405374812823447,-0.00523471432719774,0.00381076434173629,0.999970821057873,-0.00806789543887754,-0.0105002118732937,0.00757935625743771,0,2.99146067249988,static_reference,static_reference
2139929,3.0583333,0.0138909324994283,3.04444236750057,Nausicaa,Nausicaa,0.000642242016938791,0.0667531600511521,1.20892326118925,-0.00411522637108634,-0.00539482184730174,0.00381681647599377,0.9999696959014,-0.00818959224184151,-0.0108209420262808,0.007589516985724,0,3.00744666750057,static_reference,static_reference
2139932,3.0729903,0.0142096450001003,3.0587806549999,Nausicaa,Nausicaa,0.000644278114458417,0.0667237115069725,1.2088768397894,-0.00403963127196737,-0.00521397072055091,0.00377764085829855,0.999971112241777,-0.00804016245534859,-0.0104583514032147,0.00751342000399897,0,3.0217849549999,static_reference,static_reference
2139935,3.0891696,0.014320415000156,3.07484918499984,Nausicaa,Nausicaa,0.000658284501361196,0.0667427686042234,1.20889662300875,-0.00400317932515474,-0.00528215280303962,0.00382987116627934,0.999970702322776,-0.00796619550687981,-0.0105948576314012,0.00761772832646369,0,3.03785348499984,static_reference,static_reference
2139938,3.1046402,0.0144748524991087,3.09016534750089,Nausicaa,Nausicaa,0.00066216325675992,0.0667365004866783,1.20887784206068,-0.00406064496381322,-0.00523386725916726,0.00380518134770512,0.999970818769679,-0.00808175465889419,-0.0104985248930479,0.00756812417577221,0,3.05316964750089,static_reference,static_reference
2139941,3.1207836,0.0137741350008862,3.10700946499911,Nausicaa,Nausicaa,0.000656894485154935,0.0667419458548017,1.20887776545544,-0.00402133631607264,-0.0052410076007063,0.00378600573637608,0.99997101300694,-0.00800328217865901,-0.01051235458231,0.00753012750547698,0,3.07001376499911,static_reference,static_reference
2139945,3.1359878,0.0145918600008531,3.12139593999915,Nausicaa,Nausicaa,0.000619041026310576,0.0667203676071404,1.20894397342284,-0.00420156695009203,-0.00532139296006897,0.00387524549990825,0.999969505577267,-0.00836220817021059,-0.0106752283392616,0.00770605362804332,0,3.08440023999915,static_reference,static_reference
2139948,3.1506717,0.0140455025001534,3.13662619749985,Nausicaa,Nausicaa,0.000658828915228659,0.0667380600433706,1.20891004337438,-0.00400794850647053,-0.00517064887786209,0.00384261879561239,0.999971217095644,-0.00797644224545417,-0.0103719881051919,0.00764405459989386,0,3.09963049749985,static_reference,static_reference
